{"success":true,"data":[{"id":13,"name":"coffee cart on east 86","city":"New York","permit_number":2776,"zip_code":10128,"lat":40.7801,"lon":-73.9557,"description":null,"rating":null,"photos":[{"image_url":"/system/images/8/medium/1403177029426.jpg?1403177040"}]},{"id":14,"name":"coffee cart on east 87","city":"New York","permit_number":1576,"zip_code":10128,"lat":40.7801,"lon":-73.9557,"description":null,"rating":null,"photos":[{"image_url":"/system/images/9/medium/1403177298464.jpg?1403177300"}]},{"id":15,"name":"coffee cart btw 86 and 87","city":"New York","permit_number":2579,"zip_code":10028,"lat":40.7798,"lon":-73.9557,"description":null,"rating":null,"photos":[{"image_url":"/system/images/10/medium/1403177594069.jpg?1403177590"}]},{"id":16,"name":"coffee cart on east 86 btw lex and park","city":"New York","permit_number":2315,"zip_code":10128,"lat":40.7801,"lon":-73.9557,"description":null,"rating":null,"photos":[{"image_url":"/system/images/11/medium/1403177702795.jpg?1403177715"}]},{"id":17,"name":"fruit cart on 86","city":"New York","permit_number":3946,"zip_code":10028,"lat":40.7791,"lon":-73.9547,"description":null,"rating":null,"photos":[{"image_url":"/system/images/12/medium/1403177830710.jpg?1403177845"}]},{"id":18,"name":"fruit cart on east 86","city":"New York","permit_number":3339,"zip_code":10028,"lat":40.7791,"lon":-73.9547,"description":null,"rating":null,"photos":[{"image_url":"/system/images/13/medium/1403178489579.jpg?1403178508"}]},{"id":19,"name":"coffee cart on 86 btw park and lex","city":"New York","permit_number":3928,"zip_code":10028,"lat":40.7794,"lon":-73.9536,"description":null,"rating":null,"photos":[{"image_url":"/system/images/14/medium/1403178652276.jpg?1403178652"}]},{"id":20,"name":"coffee cart on east 85 and lex","city":"New York","permit_number":3693,"zip_code":10028,"lat":40.7792,"lon":-73.9557,"description":null,"rating":null,"photos":[{"image_url":"/system/images/15/medium/1403179227651.jpg?1403179235"}]},{"id":21,"name":"coffee cart btw 85 and 86 on lex","city":"New York","permit_number":3092,"zip_code":10028,"lat":40.7792,"lon":-73.9557,"description":null,"rating":null,"photos":[{"image_url":"/system/images/16/medium/1403179374533.jpg?1403179391"}]},{"id":22,"name":"coffee cart on east 84 (temp)","city":"New York","permit_number":14,"zip_code":10028,"lat":40.7798,"lon":-73.9557,"description":null,"rating":null,"photos":[{"image_url":"/system/images/17/medium/1403179529631.jpg?1403179533"}]},{"id":23,"name":"coffee cart on 79 and lex","city":"New York","permit_number":2042,"zip_code":10075,"lat":40.7743,"lon":-73.9603,"description":null,"rating":null,"photos":[{"image_url":"/system/images/18/medium/1403179856467.jpg?1403179863"}]},{"id":24,"name":"coffee cart on 78 and lex","city":"New York","permit_number":3975,"zip_code":10075,"lat":40.7743,"lon":-73.9603,"description":null,"rating":null,"photos":[{"image_url":"/system/images/19/medium/1403179985425.jpg?1403179989"}]},{"id":25,"name":"fruit cart on 76 and lex","city":"New York","permit_number":3535,"zip_code":10075,"lat":40.7754,"lon":-73.9617,"description":null,"rating":null,"photos":[{"image_url":"/system/images/20/medium/1403180251767.jpg?1403180280"}]},{"id":26,"name":"coffee cart on 75 and lex","city":"New York","permit_number":3512,"zip_code":10075,"lat":40.7732,"lon":-73.959,"description":null,"rating":null,"photos":[{"image_url":"/system/images/21/medium/1403180412672.jpg?1403180416"}]},{"id":27,"name":"fruit cart on 72 and lex (temp)","city":"New York","permit_number":90650,"zip_code":10021,"lat":40.7703,"lon":-73.9681,"description":null,"rating":null,"photos":[{"image_url":"/system/images/22/medium/1403180656242.jpg?1403180656"}]},{"id":28,"name":"coffee cart on lex and 72","city":"New York","permit_number":2787,"zip_code":10021,"lat":40.7703,"lon":-73.9681,"description":null,"rating":null,"photos":[{"image_url":"/system/images/23/medium/1403180754845.jpg?1403180753"}]},{"id":29,"name":"breakfast cart on east 69","city":"New York","permit_number":1172,"zip_code":10021,"lat":40.7703,"lon":-73.9681,"description":null,"rating":null,"photos":[{"image_url":"/system/images/24/medium/1403180989769.jpg?1403181004"}]},{"id":30,"name":"fruit cart on lex and 69","city":"New York","permit_number":3500,"zip_code":10065,"lat":40.769,"lon":-73.966,"description":null,"rating":null,"photos":[{"image_url":"/system/images/25/medium/1403181097013.jpg?1403181098"}]},{"id":31,"name":"coffee cart on lex and 68","city":"New York","permit_number":2069,"zip_code":10065,"lat":40.7684,"lon":-73.965,"description":null,"rating":null,"photos":[{"image_url":"/system/images/26/medium/1403181230234.jpg?1403181236"}]},{"id":32,"name":"coffee cart on lex and 68","city":"New York","permit_number":1570,"zip_code":10065,"lat":40.7684,"lon":-73.965,"description":null,"rating":null,"photos":[{"image_url":"/system/images/27/medium/1403181334690.jpg?1403181338"}]},{"id":33,"name":"fruit cart on lex and 68 (temp)","city":"New York","permit_number":801,"zip_code":10065,"lat":40.7678,"lon":-73.9639,"description":null,"rating":null,"photos":[{"image_url":"/system/images/28/medium/1403181511930.jpg?1403181516"}]},{"id":34,"name":"halal cart on lex and 68","city":"New York","permit_number":1626,"zip_code":10065,"lat":40.7666,"lon":-73.9618,"description":null,"rating":null,"photos":[{"image_url":"/system/images/29/medium/1403181606194.jpg?1403181616"}]},{"id":35,"name":"coffee cart on lex and 68","city":"New York","permit_number":3254,"zip_code":10065,"lat":40.7684,"lon":-73.965,"description":null,"rating":null,"photos":[{"image_url":"/system/images/30/medium/1403181733996.jpg?1403181748"}]},{"id":36,"name":"fruit cart on lex and 68","city":"New York","permit_number":1770,"zip_code":10065,"lat":40.7684,"lon":-73.965,"description":null,"rating":null,"photos":[{"image_url":"/system/images/31/medium/1403181853337.jpg?1403181856"}]},{"id":37,"name":"the roadside grill truck","city":"New York","permit_number":3865,"zip_code":10065,"lat":40.7684,"lon":-73.965,"description":null,"rating":null,"photos":[{"image_url":"/system/images/32/medium/1403181923797.jpg?1403181939"}]},{"id":38,"name":"halal cart on lex and 68","city":"New York","permit_number":2793,"zip_code":10065,"lat":40.7684,"lon":-73.965,"description":null,"rating":null,"photos":[{"image_url":"/system/images/33/medium/1403182120737.jpg?1403182126"}]},{"id":39,"name":"fruit cart on lex and 87","city":"New York","permit_number":1935,"zip_code":10028,"lat":40.7799,"lon":-73.9557,"description":null,"rating":null,"photos":[{"image_url":"/system/images/34/medium/1403182567708.jpg?1403182680"}]},{"id":40,"name":"XPL Halal Food","city":"Brooklyn","permit_number":3625,"zip_code":11201,"lat":40.6915,"lon":-73.9914,"description":null,"rating":null,"photos":[{"image_url":"/system/images/35/medium/image.jpg?1403186964"}]},{"id":41,"name":"Fruit cart on Livingston and Court","city":"Brooklyn","permit_number":3251,"zip_code":11201,"lat":40.6917,"lon":-73.9911,"description":null,"rating":null,"photos":[{"image_url":"/system/images/36/medium/image.jpg?1403187200"}]},{"id":42,"name":"Coffee cart on court btw Livingston and joralemon","city":"Brooklyn","permit_number":3891,"zip_code":11201,"lat":40.6918,"lon":-73.9911,"description":null,"rating":null,"photos":[{"image_url":"/system/images/37/medium/image.jpg?1403187312"}]},{"id":43,"name":"Coffee cart on Court and Joralemon","city":"Brooklyn","permit_number":3124,"zip_code":11201,"lat":40.6921,"lon":-73.9908,"description":null,"rating":null,"photos":[{"image_url":"/system/images/38/medium/image.jpg?1403187456"}]},{"id":44,"name":"Halal cart on court and Joralemon","city":"Brooklyn","permit_number":1426,"zip_code":11201,"lat":40.6922,"lon":-73.9906,"description":null,"rating":null,"photos":[{"image_url":"/system/images/39/medium/image.jpg?1403187572"}]},{"id":45,"name":"Fruit cart between Brooklyn boulevard and court","city":"Brooklyn","permit_number":3150,"zip_code":11201,"lat":40.6927,"lon":-73.9904,"description":null,"rating":null,"photos":[{"image_url":"/system/images/40/medium/image.jpg?1403187694"}]},{"id":46,"name":"Fresh Juice Smoothies","city":"Brooklyn","permit_number":101,"zip_code":11201,"lat":40.6928,"lon":-73.99,"description":null,"rating":null,"photos":[{"image_url":"/system/images/41/medium/image.jpg?1403187968"}]},{"id":47,"name":"Coffee cart btw bye Brooklyn boulevard and court","city":"Brooklyn","permit_number":1956,"zip_code":11201,"lat":40.6926,"lon":-73.9898,"description":null,"rating":null,"photos":[{"image_url":"/system/images/42/medium/image.jpg?1403188087"}]},{"id":48,"name":"Fruit cart on Joralemon and Brooklyn boulevard","city":"Brooklyn","permit_number":3100,"zip_code":11201,"lat":40.6923,"lon":-73.9895,"description":null,"rating":null,"photos":[{"image_url":"/system/images/43/medium/image.jpg?1403188842"}]},{"id":49,"name":"Lunch Box on Brooklyn boulevard between Livingston and Joralemon","city":"Brooklyn","permit_number":6182,"zip_code":11201,"lat":40.6921,"lon":-73.9893,"description":null,"rating":null,"photos":[{"image_url":"/system/images/44/medium/image.jpg?1403188961"}]},{"id":50,"name":"Halal cart on Brooklyn boulevard between Livingston and Joralemon","city":"Brooklyn","permit_number":2045,"zip_code":11201,"lat":40.692,"lon":-73.9891,"description":null,"rating":null,"photos":[{"image_url":"/system/images/45/medium/image.jpg?1403189075"}]},{"id":51,"name":"Coffee cart on Livingston and boerum place","city":"Brooklyn","permit_number":3450,"zip_code":11201,"lat":40.6916,"lon":-73.9898,"description":null,"rating":null,"photos":[{"image_url":"/system/images/46/medium/image.jpg?1403189249"}]},{"id":52,"name":"Hot dog cart on Livingston and boerum place","city":"Brooklyn","permit_number":3152,"zip_code":11201,"lat":40.6916,"lon":-73.9898,"description":null,"rating":null,"photos":[{"image_url":"/system/images/47/medium/image.jpg?1403189335"}]},{"id":53,"name":"Fruit cart on Fulton and boerum place","city":"Brooklyn","permit_number":2111,"zip_code":11201,"lat":40.6921,"lon":-73.9896,"description":null,"rating":null,"photos":[{"image_url":"/system/images/48/medium/image.jpg?1403189573"}]},{"id":54,"name":"Halal food and breakfast cart","city":"Brooklyn","permit_number":3149,"zip_code":11201,"lat":40.6928,"lon":-73.9891,"description":null,"rating":null,"photos":[{"image_url":"/system/images/49/medium/image.jpg?1403189787"}]},{"id":55,"name":"Fruit cart","city":"Brooklyn","permit_number":644,"zip_code":11201,"lat":40.6933,"lon":-73.9887,"description":null,"rating":null,"photos":[{"image_url":"/system/images/50/medium/image.jpg?1403190042"}]},{"id":56,"name":"Alex Coffee","city":"Brooklyn","permit_number":1703,"zip_code":11201,"lat":40.6933,"lon":-73.989,"description":null,"rating":null,"photos":[{"image_url":"/system/images/51/medium/image.jpg?1403190134"}]},{"id":57,"name":"Coffee cart","city":"Brooklyn","permit_number":2687,"zip_code":11201,"lat":40.6953,"lon":-73.989,"description":null,"rating":null,"photos":[{"image_url":"/system/images/52/medium/image.jpg?1403190339"}]},{"id":58,"name":"Fresh Breakfast on pierrepoint and cadman plaza","city":"Brooklyn","permit_number":4123,"zip_code":11201,"lat":40.6946,"lon":-73.9908,"description":null,"rating":null,"photos":[{"image_url":"/system/images/53/medium/image.jpg?1403190830"}]},{"id":59,"name":"Big Apple Pretzels on Clinton and Montague","city":"Brooklyn","permit_number":3128,"zip_code":11201,"lat":40.6941,"lon":-73.9924,"description":null,"rating":null,"photos":[{"image_url":"/system/images/54/medium/image.jpg?1403191068"}]},{"id":60,"name":"Coffee cart on Clinton and montague","city":"Brooklyn","permit_number":1952,"zip_code":11201,"lat":40.6941,"lon":-73.9925,"description":null,"rating":null,"photos":[{"image_url":"/system/images/55/medium/image.jpg?1403191136"}]},{"id":61,"name":"Samy's hot dogs","city":"Brooklyn","permit_number":3351,"zip_code":11201,"lat":40.693,"lon":-73.9884,"description":null,"rating":null,"photos":[{"image_url":"/system/images/56/medium/image.jpg?1403191391"}]},{"id":62,"name":"Kazi Halal Food","city":"Brooklyn","permit_number":3624,"zip_code":11201,"lat":40.6925,"lon":-73.9911,"description":null,"rating":null,"photos":[{"image_url":"/system/images/57/medium/image.jpg?1403191502"}]},{"id":63,"name":"Coffee cart on cadman plaza","city":"Brooklyn","permit_number":3112,"zip_code":11201,"lat":40.6993,"lon":-73.9915,"description":null,"rating":null,"photos":[{"image_url":"/system/images/58/medium/image.jpg?1403192229"}]},{"id":65,"name":"Samy's hot dogs","city":"Brooklyn","permit_number":685,"zip_code":11201,"lat":40.6993,"lon":-73.9915,"description":null,"rating":null,"photos":[{"image_url":"/system/images/59/medium/image.jpg?1403192322"}]},{"id":66,"name":"Breakfast and Halal Cart on Jay","city":"Brooklyn","permit_number":110,"zip_code":11201,"lat":40.697,"lon":-73.9869,"description":null,"rating":null,"photos":[{"image_url":"/system/images/60/medium/image.jpg?1403192997"}]},{"id":67,"name":"Sam's coffee","city":"Brooklyn","permit_number":3936,"zip_code":11201,"lat":40.6935,"lon":-73.9867,"description":null,"rating":null,"photos":[{"image_url":"/system/images/61/medium/image.jpg?1403193330"}]},{"id":68,"name":"Pakiza","city":"Brooklyn","permit_number":3127,"zip_code":11201,"lat":40.6913,"lon":-73.9874,"description":null,"rating":null,"photos":[{"image_url":"/system/images/62/medium/image.jpg?1403193696"}]},{"id":69,"name":"Hot dog stand","city":"Brooklyn","permit_number":3787,"zip_code":11201,"lat":40.6914,"lon":-73.9874,"description":null,"rating":null,"photos":[{"image_url":"/system/images/63/medium/image.jpg?1403193822"}]},{"id":70,"name":"Hot Dog Sausage Pretzel","city":"Brooklyn","permit_number":1351,"zip_code":11201,"lat":40.6906,"lon":-73.9883,"description":null,"rating":null,"photos":[{"image_url":"/system/images/64/medium/image.jpg?1403194032"}]},{"id":71,"name":"Fruit stand","city":"Brooklyn","permit_number":767,"zip_code":11201,"lat":40.6905,"lon":-73.988,"description":null,"rating":null,"photos":[{"image_url":"/system/images/65/medium/image.jpg?1403194150"}]},{"id":73,"name":"Halal cart on smith and schermerhorn","city":"Brooklyn","permit_number":3846,"zip_code":11201,"lat":40.6899,"lon":-73.9884,"description":null,"rating":null,"photos":[{"image_url":"/system/images/66/medium/image.jpg?1403194378"}]},{"id":74,"name":"Hot dog stand on smith and schermerhorn","city":"Brooklyn","permit_number":1983,"zip_code":11201,"lat":40.6899,"lon":-73.9882,"description":null,"rating":null,"photos":[{"image_url":"/system/images/67/medium/image.jpg?1403194587"}]},{"id":76,"name":"Fruit and coffee","city":"New York","permit_number":2690,"zip_code":10028,"lat":40.7799,"lon":-73.9569,"description":null,"rating":null,"photos":[{"image_url":"/system/images/69/medium/image.jpg?1403270351"}]},{"id":77,"name":"Wasey's Place","city":"New York","permit_number":3239,"zip_code":10065,"lat":40.7688,"lon":-73.965,"description":null,"rating":null,"photos":[{"image_url":"/system/images/70/medium/image.jpg?1403270934"}]},{"id":78,"name":"Knish and hot dog cart","city":"New York","permit_number":1772,"zip_code":10065,"lat":40.7685,"lon":-73.966,"description":null,"rating":null,"photos":[{"image_url":"/system/images/71/medium/image.jpg?1403271152"}]},{"id":79,"name":"Waseem's Spot","city":"New York","permit_number":3383,"zip_code":10065,"lat":40.7685,"lon":-73.9653,"description":null,"rating":null,"photos":[{"image_url":"/system/images/72/medium/image.jpg?1403271303"}]},{"id":80,"name":"Coffee Cart 60 Park","city":"New York","permit_number":3929,"zip_code":10022,"lat":40.7636,"lon":-73.9693,"description":null,"rating":null,"photos":[{"image_url":"/system/images/73/medium/image.jpg?1403271773"}]},{"id":81,"name":"Coffee Cart 59 Park","city":"New York","permit_number":2723,"zip_code":10022,"lat":40.7627,"lon":-73.9696,"description":null,"rating":null,"photos":[{"image_url":"/system/images/74/medium/image.jpg?1403271931"}]},{"id":82,"name":"Fruit Stand Park 59","city":"New York","permit_number":2652,"zip_code":10022,"lat":40.7632,"lon":-73.9701,"description":null,"rating":null,"photos":[{"image_url":"/system/images/75/medium/image.jpg?1403272113"}]},{"id":83,"name":"The Coffee Place","city":"New York","permit_number":4049,"zip_code":10022,"lat":40.7632,"lon":-73.9701,"description":null,"rating":null,"photos":[{"image_url":"/system/images/76/medium/image.jpg?1403272166"}]},{"id":84,"name":"Fruit Stand Park 58","city":"New York","permit_number":3120,"zip_code":10022,"lat":40.7632,"lon":-73.9703,"description":null,"rating":null,"photos":[{"image_url":"/system/images/77/medium/image.jpg?1403272425"}]},{"id":85,"name":"Coffee Cart Park 57","city":"New York","permit_number":2951,"zip_code":10022,"lat":40.7615,"lon":-73.9702,"description":null,"rating":null,"photos":[{"image_url":"/system/images/78/medium/image.jpg?1403272633"}]},{"id":86,"name":"Rafiqi's","city":"New York","permit_number":3409,"zip_code":10022,"lat":40.7617,"lon":-73.9705,"description":null,"rating":null,"photos":[{"image_url":"/system/images/79/medium/image.jpg?1403272779"}]},{"id":87,"name":"Fruit Stand Park 55","city":"New York","permit_number":3466,"zip_code":10022,"lat":40.7602,"lon":-73.9715,"description":null,"rating":null,"photos":[{"image_url":"/system/images/80/medium/image.jpg?1403272985"}]},{"id":88,"name":"Chef G Halal \u0026 Healthy","city":"New York","permit_number":2749,"zip_code":10022,"lat":40.7601,"lon":-73.9713,"description":null,"rating":null,"photos":[{"image_url":"/system/images/81/medium/image.jpg?1403273167"}]},{"id":89,"name":"Rafi's Halal Food","city":"New York","permit_number":4263,"zip_code":10022,"lat":40.7592,"lon":-73.9717,"description":null,"rating":null,"photos":[{"image_url":"/system/images/82/medium/image.jpg?1403273359"}]},{"id":90,"name":"Coffee Cart 54 Park","city":"New York","permit_number":2676,"zip_code":10022,"lat":40.7597,"lon":-73.9722,"description":null,"rating":null,"photos":[{"image_url":"/system/images/83/medium/image.jpg?1403273553"}]},{"id":91,"name":"Park's Coffee and Grill","city":"New York","permit_number":4357,"zip_code":10022,"lat":40.7598,"lon":-73.9727,"description":null,"rating":null,"photos":[{"image_url":"/system/images/84/medium/image.jpg?1403273681"}]},{"id":92,"name":"100% Halal \u0026 Healthy Food","city":"New York","permit_number":4453,"zip_code":10022,"lat":40.7599,"lon":-73.9726,"description":null,"rating":null,"photos":[{"image_url":"/system/images/85/medium/image.jpg?1403273790"}]},{"id":93,"name":"Loly Smoothie","city":"New York","permit_number":521,"zip_code":10022,"lat":40.7602,"lon":-73.9727,"description":null,"rating":null,"photos":[{"image_url":"/system/images/86/medium/image.jpg?1403273894"}]},{"id":94,"name":"Fruit Salad","city":"New York","permit_number":3679,"zip_code":10152,"lat":40.7587,"lon":-73.9726,"description":null,"rating":null,"photos":[{"image_url":"/system/images/87/medium/image.jpg?1403274086"}]},{"id":95,"name":"Good Morning New Yorker Coffe Cart","city":"New York","permit_number":4065,"zip_code":10022,"lat":40.7588,"lon":-73.9721,"description":null,"rating":null,"photos":[{"image_url":"/system/images/88/medium/image.jpg?1403274193"}]},{"id":96,"name":"Coffee Cart 53 Park","city":"New York","permit_number":3403,"zip_code":10022,"lat":40.7592,"lon":-73.9727,"description":null,"rating":null,"photos":[{"image_url":"/system/images/89/medium/image.jpg?1403274695"}]},{"id":97,"name":"Neopolitan","city":"New York","permit_number":800,"zip_code":10022,"lat":40.7584,"lon":-73.9731,"description":null,"rating":null,"photos":[{"image_url":"/system/images/90/medium/image.jpg?1403274827"}]},{"id":98,"name":"Rafiqi's Truck","city":"New York","permit_number":3176,"zip_code":10154,"lat":40.7583,"lon":-73.973,"description":null,"rating":null,"photos":[{"image_url":"/system/images/91/medium/image.jpg?1403274992"}]},{"id":99,"name":"Primos Cafe","city":"New York","permit_number":1862,"zip_code":10022,"lat":40.7584,"lon":-73.9732,"description":null,"rating":null,"photos":[{"image_url":"/system/images/92/medium/image.jpg?1403275065"}]},{"id":100,"name":"Eggstravaganza","city":"New York","permit_number":4128,"zip_code":10154,"lat":40.7583,"lon":-73.9731,"description":null,"rating":null,"photos":[{"image_url":"/system/images/93/medium/image.jpg?1403275143"}]},{"id":101,"name":"Halal Food Park 51","city":"New York","permit_number":3347,"zip_code":10022,"lat":40.7573,"lon":-73.9721,"description":null,"rating":null,"photos":[{"image_url":"/system/images/94/medium/image.jpg?1403275323"}]},{"id":102,"name":"Uncle Gussy's Traditional Greek Treats","city":"New York","permit_number":3976,"zip_code":10154,"lat":40.7578,"lon":-73.9733,"description":null,"rating":null,"photos":[{"image_url":"/system/images/95/medium/image.jpg?1403275418"}]},{"id":103,"name":"Uncle Gussy's Traditional Greek Cuisine","city":"New York","permit_number":2794,"zip_code":10154,"lat":40.7578,"lon":-73.9734,"description":null,"rating":null,"photos":[{"image_url":"/system/images/96/medium/image.jpg?1403275499"}]},{"id":104,"name":"YOGO","city":"New York","permit_number":482,"zip_code":10022,"lat":40.7583,"lon":-73.9738,"description":null,"rating":null,"photos":[{"image_url":"/system/images/97/medium/image.jpg?1403276173"}]},{"id":105,"name":"Famous Coffee \u0026 Halal Food","city":"New York","permit_number":3032,"zip_code":10029,"lat":40.7571,"lon":-73.9741,"description":null,"rating":null,"photos":[]},{"id":124,"name":"coffee cart on 3rd and 86","city":"New York","permit_number":1294,"zip_code":10028,"lat":40.7788,"lon":-73.9543,"description":null,"rating":null,"photos":[{"image_url":"/system/images/110/medium/1403527331910.jpg?1403527362"}]},{"id":125,"name":"coffee cart on 3rd and 86 northeast","city":"New York","permit_number":2179,"zip_code":10028,"lat":40.7788,"lon":-73.954,"description":null,"rating":null,"photos":[{"image_url":"/system/images/111/medium/1403527441936.jpg?1403527455"}]},{"id":126,"name":"fruit cart on 3rd and 86 northeast","city":"New York","permit_number":761,"zip_code":10128,"lat":40.7788,"lon":-73.9539,"description":null,"rating":null,"photos":[{"image_url":"/system/images/112/medium/1403527522002.jpg?1403527533"}]},{"id":127,"name":"fruit cart btw 2nd and 3rd on 86","city":"New York","permit_number":4218,"zip_code":10128,"lat":40.7786,"lon":-73.9534,"description":null,"rating":null,"photos":[{"image_url":"/system/images/113/medium/1403527626286.jpg?1403527637"}]},{"id":128,"name":"fruit cart btw 2nd and 3rd on 86","city":"New York","permit_number":0,"zip_code":10028,"lat":40.7787,"lon":-73.9534,"description":null,"rating":null,"photos":[{"image_url":"/system/images/114/medium/1403527815282.jpg?1403527827"}]},{"id":129,"name":"fruit cart btw 2nd and 3rd on 86","city":"New York","permit_number":4267,"zip_code":10028,"lat":40.7785,"lon":-73.953,"description":null,"rating":null,"photos":[{"image_url":"/system/images/115/medium/1403527913135.jpg?1403527929"}]},{"id":130,"name":"coffee cart on 3rd and 85","city":"New York","permit_number":2168,"zip_code":10028,"lat":40.7782,"lon":-73.9544,"description":null,"rating":null,"photos":[{"image_url":"/system/images/116/medium/1403528116465.jpg?1403528142"}]},{"id":131,"name":"Pretzels at Columbus Circle","city":"New York","permit_number":6490,"zip_code":10019,"lat":40.7678,"lon":-73.9813,"description":null,"rating":null,"photos":[{"image_url":"/system/images/117/medium/image.jpg?1403528209"}]},{"id":132,"name":"Ice Cream at Columbus Circle","city":"New York","permit_number":6477,"zip_code":10019,"lat":40.7682,"lon":-73.9811,"description":null,"rating":null,"photos":[{"image_url":"/system/images/118/medium/image.jpg?1403528267"}]},{"id":133,"name":"fruit cart on 3rd and 85 south west","city":"New York","permit_number":4247,"zip_code":10028,"lat":40.7782,"lon":-73.9544,"description":null,"rating":null,"photos":[{"image_url":"/system/images/119/medium/1403528281155.jpg?1403528293"}]},{"id":134,"name":"coffee cart on 3rd and 85","city":"New York","permit_number":339,"zip_code":10028,"lat":40.7782,"lon":-73.9545,"description":null,"rating":null,"photos":[{"image_url":"/system/images/120/medium/1403528337571.jpg?1403528349"}]},{"id":135,"name":"Hassan \u0026 Abuda Halal Cart","city":"New York","permit_number":28,"zip_code":10019,"lat":40.7679,"lon":-73.9806,"description":null,"rating":null,"photos":[{"image_url":"/system/images/121/medium/image.jpg?1403528369"}]},{"id":136,"name":"NYC Meals On Wheels","city":"New York","permit_number":30,"zip_code":10019,"lat":40.768,"lon":-73.9808,"description":null,"rating":null,"photos":[{"image_url":"/system/images/122/medium/image.jpg?1403528425"}]},{"id":137,"name":"fruit cart on 3rd and 82 southeast","city":"New York","permit_number":772,"zip_code":10028,"lat":40.7761,"lon":-73.9559,"description":null,"rating":null,"photos":[{"image_url":"/system/images/123/medium/1403528580342.jpg?1403528597"}]},{"id":138,"name":"fruit cart on 3rd and 79 northeast","city":"New York","permit_number":4059,"zip_code":10075,"lat":40.7743,"lon":-73.9573,"description":null,"rating":null,"photos":[{"image_url":"/system/images/124/medium/1403528780586.jpg?1403528801"}]},{"id":139,"name":"coffee cart on 3rd and 78","city":"New York","permit_number":2525,"zip_code":10075,"lat":40.7735,"lon":-73.9579,"description":null,"rating":null,"photos":[{"image_url":"/system/images/125/medium/1403528904806.jpg?1403528917"}]},{"id":140,"name":"fruit cart on 3rd and 77","city":"New York","permit_number":3916,"zip_code":10075,"lat":40.7733,"lon":-73.9581,"description":null,"rating":null,"photos":[{"image_url":"/system/images/126/medium/1403528978551.jpg?1403529010"}]},{"id":141,"name":"coffee cart on 3rd and 77 southwest","city":"New York","permit_number":1233,"zip_code":10075,"lat":40.7731,"lon":-73.9581,"description":null,"rating":null,"photos":[{"image_url":"/system/images/127/medium/1403529064195.jpg?1403529084"}]},{"id":142,"name":"fruit cart on 3rd and 74","city":"New York","permit_number":2292,"zip_code":10021,"lat":40.771,"lon":-73.9596,"description":null,"rating":null,"photos":[{"image_url":"/system/images/128/medium/1403529278456.jpg?1403529295"}]},{"id":143,"name":"fruit cart on 3rd and 72","city":"New York","permit_number":38,"zip_code":10021,"lat":40.7696,"lon":-73.9608,"description":null,"rating":null,"photos":[{"image_url":"/system/images/129/medium/1403529433941.jpg?1403529450"}]},{"id":144,"name":"halal cart on 3rd and 71 northwest","city":"New York","permit_number":1252,"zip_code":10021,"lat":40.7694,"lon":-73.9612,"description":null,"rating":null,"photos":[{"image_url":"/system/images/130/medium/1403529576596.jpg?1403529599"}]},{"id":145,"name":"coffee cart on 3rd and 70","city":"New York","permit_number":2906,"zip_code":10021,"lat":40.7683,"lon":-73.9616,"description":null,"rating":null,"photos":[{"image_url":"/system/images/131/medium/1403529703066.jpg?1403529717"}]},{"id":146,"name":"coffee cart on 3rd and 68","city":"New York","permit_number":2441,"zip_code":10065,"lat":40.7675,"lon":-73.9623,"description":null,"rating":null,"photos":[{"image_url":"/system/images/132/medium/1403529851439.jpg?1403529869"}]},{"id":147,"name":"fruit cart on 3rd and 68","city":"New York","permit_number":394,"zip_code":10065,"lat":40.7673,"lon":-73.9624,"description":null,"rating":null,"photos":[{"image_url":"/system/images/133/medium/1403529918969.jpg?1403529969"}]},{"id":148,"name":"coffee cart on 3rd and 67","city":"New York","permit_number":4144,"zip_code":10065,"lat":40.7666,"lon":-73.9629,"description":null,"rating":null,"photos":[{"image_url":"/system/images/134/medium/1403530083552.jpg?1403530110"}]},{"id":149,"name":"fruit cart on 3rd and 66","city":"New York","permit_number":102,"zip_code":10065,"lat":40.7664,"lon":-73.963,"description":null,"rating":null,"photos":[{"image_url":"/system/images/135/medium/1403530148269.jpg?1403530162"}]},{"id":150,"name":"fruit cart on 3rd and 65","city":"New York","permit_number":4416,"zip_code":10065,"lat":40.7655,"lon":-73.9637,"description":null,"rating":null,"photos":[{"image_url":"/system/images/136/medium/1403530266080.jpg?1403530281"}]},{"id":151,"name":"coffee cart on 3rd and 64","city":"New York","permit_number":1608,"zip_code":10065,"lat":40.7649,"lon":-73.9641,"description":null,"rating":null,"photos":[{"image_url":"/system/images/137/medium/1403530445168.jpg?1403530466"}]},{"id":153,"name":"Halal Food","city":"New York","permit_number":41,"zip_code":10023,"lat":40.7762,"lon":-73.976,"description":null,"rating":null,"photos":[{"image_url":"/system/images/139/medium/image.jpg?1403530682"}]},{"id":154,"name":"Fruit Salad Cart Park 49","city":"New York","permit_number":672,"zip_code":10017,"lat":40.7565,"lon":-73.9747,"description":null,"rating":null,"photos":[{"image_url":"/system/images/140/medium/image.jpg?1403530698"}]},{"id":155,"name":"halal cart on 3rd and 64","city":"New York","permit_number":3917,"zip_code":10065,"lat":40.7633,"lon":-73.9651,"description":null,"rating":null,"photos":[{"image_url":"/system/images/141/medium/1403530697637.jpg?1403530713"}]},{"id":156,"name":"coffee cart on 3rd and 62","city":"New York","permit_number":3800,"zip_code":10065,"lat":40.7633,"lon":-73.9652,"description":null,"rating":null,"photos":[{"image_url":"/system/images/142/medium/1403530768232.jpg?1403530782"}]},{"id":157,"name":"Coffee Cart 48 Park","city":"New York","permit_number":1357,"zip_code":10017,"lat":40.7561,"lon":-73.9752,"description":null,"rating":null,"photos":[{"image_url":"/system/images/143/medium/image.jpg?1403530879"}]},{"id":158,"name":"halal cart on 3rd and 62","city":"New York","permit_number":1448,"zip_code":10065,"lat":40.7633,"lon":-73.9652,"description":null,"rating":null,"photos":[{"image_url":"/system/images/144/medium/1403530844032.jpg?1403530897"}]},{"id":159,"name":"coffee cart on 3rd and 61","city":"New York","permit_number":3861,"zip_code":10065,"lat":40.7627,"lon":-73.9655,"description":null,"rating":null,"photos":[{"image_url":"/system/images/145/medium/1403530976155.jpg?1403531018"}]},{"id":160,"name":"Smoothie Stand Park 48","city":"New York","permit_number":477,"zip_code":10017,"lat":40.7561,"lon":-73.9751,"description":null,"rating":null,"photos":[{"image_url":"/system/images/146/medium/image.jpg?1403531023"}]},{"id":161,"name":"Thai Food On Wheels","city":"New York","permit_number":630,"zip_code":10017,"lat":40.7564,"lon":-73.9751,"description":null,"rating":null,"photos":[{"image_url":"/system/images/147/medium/image.jpg?1403531078"}]},{"id":162,"name":"Fresh Juice Smoothies","city":"New York","permit_number":44,"zip_code":10024,"lat":40.7804,"lon":-73.9732,"description":null,"rating":null,"photos":[{"image_url":"/system/images/148/medium/image.jpg?1403531119"}]},{"id":163,"name":"juice cart on 3rd and 60","city":"New York","permit_number":555,"zip_code":10065,"lat":40.7623,"lon":-73.9658,"description":null,"rating":null,"photos":[{"image_url":"/system/images/149/medium/1403531111071.jpg?1403531138"}]},{"id":164,"name":"The Roadside Grill","city":"New York","permit_number":12,"zip_code":10024,"lat":40.7805,"lon":-73.9731,"description":null,"rating":null,"photos":[{"image_url":"/system/images/150/medium/image.jpg?1403531160"}]},{"id":165,"name":"coffee cart on 3rd and 69","city":"New York","permit_number":2934,"zip_code":10022,"lat":40.7618,"lon":-73.9666,"description":null,"rating":null,"photos":[{"image_url":"/system/images/151/medium/1403531204626.jpg?1403531221"}]},{"id":166,"name":"NYC Meals on Wheels","city":"New York","permit_number":1471,"zip_code":10024,"lat":40.7807,"lon":-73.9727,"description":null,"rating":null,"photos":[{"image_url":"/system/images/152/medium/image.jpg?1403531253"}]},{"id":167,"name":"halal cart on 3rd and 60","city":"New York","permit_number":2478,"zip_code":10022,"lat":40.762,"lon":-73.9664,"description":null,"rating":null,"photos":[{"image_url":"/system/images/153/medium/1403531258767.jpg?1403531278"}]},{"id":168,"name":"Smoothie Cart Park 48","city":"New York","permit_number":3348,"zip_code":10171,"lat":40.7558,"lon":-73.9747,"description":null,"rating":null,"photos":[{"image_url":"/system/images/154/medium/image.jpg?1403531313"}]},{"id":169,"name":"Fruit Stand Park 48","city":"New York","permit_number":3505,"zip_code":10171,"lat":40.7558,"lon":-73.9746,"description":null,"rating":null,"photos":[]},{"id":170,"name":"TITO BOSS - halal food on 3rd and 59","city":"New York","permit_number":3761,"zip_code":10022,"lat":40.7618,"lon":-73.9667,"description":null,"rating":null,"photos":[{"image_url":"/system/images/155/medium/1403531433646.jpg?1403531452"}]},{"id":171,"name":"The Roadside Grill","city":"New York","permit_number":26,"zip_code":10024,"lat":40.7809,"lon":-73.9727,"description":null,"rating":null,"photos":[{"image_url":"/system/images/156/medium/image.jpg?1403531465"}]},{"id":172,"name":"Breakfast \u0026 Lunch","city":"New York","permit_number":1577,"zip_code":10017,"lat":40.7555,"lon":-73.9753,"description":null,"rating":null,"photos":[{"image_url":"/system/images/157/medium/image.jpg?1403531526"}]},{"id":173,"name":"coffee cart on 3rd and 59","city":"New York","permit_number":2630,"zip_code":10022,"lat":40.7619,"lon":-73.9666,"description":null,"rating":null,"photos":[{"image_url":"/system/images/158/medium/1403531507002.jpg?1403531537"}]},{"id":174,"name":"Ice Cream (Temporary Permit)","city":"New York","permit_number":588,"zip_code":10024,"lat":40.7806,"lon":-73.973,"description":null,"rating":null,"photos":[{"image_url":"/system/images/159/medium/image.jpg?1403531594"}]},{"id":175,"name":"Main Squeeze: Smoothie \u0026 Juice Bar","city":"New York","permit_number":80,"zip_code":10024,"lat":40.7813,"lon":-73.9724,"description":null,"rating":null,"photos":[{"image_url":"/system/images/160/medium/image.jpg?1403531661"}]},{"id":176,"name":"coffee cart on 3rd and 58","city":"New York","permit_number":1819,"zip_code":10022,"lat":40.7608,"lon":-73.967,"description":null,"rating":null,"photos":[{"image_url":"/system/images/161/medium/1403531650606.jpg?1403531671"}]},{"id":177,"name":"Rahman's Kwik Meal","city":"New York","permit_number":1778,"zip_code":10017,"lat":40.7559,"lon":-73.9755,"description":null,"rating":null,"photos":[{"image_url":"/system/images/162/medium/image.jpg?1403531714"}]},{"id":178,"name":"Hanna","city":"New York","permit_number":57,"zip_code":10024,"lat":40.7808,"lon":-73.9728,"description":null,"rating":null,"photos":[{"image_url":"/system/images/163/medium/image.jpg?1403531719"}]},{"id":179,"name":"halal cart on 3rd and 58","city":"New York","permit_number":3178,"zip_code":10022,"lat":40.7609,"lon":-73.9672,"description":null,"rating":null,"photos":[{"image_url":"/system/images/164/medium/1403531760449.jpg?1403531786"}]},{"id":180,"name":"Halal Food","city":"New York","permit_number":63,"zip_code":10024,"lat":40.7821,"lon":-73.9721,"description":null,"rating":null,"photos":[{"image_url":"/system/images/165/medium/image.jpg?1403531844"}]},{"id":181,"name":"Coffee Cart 46 Park","city":"New York","permit_number":1227,"zip_code":10167,"lat":40.7546,"lon":-73.9754,"description":null,"rating":null,"photos":[{"image_url":"/system/images/166/medium/image.jpg?1403531933"}]},{"id":182,"name":"Pretzels, Hot Dogs, and More!","city":"New York","permit_number":34,"zip_code":10024,"lat":40.782,"lon":-73.972,"description":null,"rating":null,"photos":[{"image_url":"/system/images/167/medium/image.jpg?1403531955"}]},{"id":183,"name":"Original Philly Cheese Steak","city":"New York","permit_number":3104,"zip_code":10017,"lat":40.7545,"lon":-73.9755,"description":null,"rating":null,"photos":[{"image_url":"/system/images/168/medium/image.jpg?1403531984"}]},{"id":184,"name":"coffee cart on 3rd and 56","city":"New York","permit_number":2050,"zip_code":10022,"lat":40.7592,"lon":-73.9681,"description":null,"rating":null,"photos":[{"image_url":"/system/images/169/medium/1403531968107.jpg?1403531990"}]},{"id":185,"name":"coffee cart on 3rd and 55","city":"New York","permit_number":1745,"zip_code":10022,"lat":40.759,"lon":-73.9684,"description":null,"rating":null,"photos":[{"image_url":"/system/images/170/medium/1403532085591.jpg?1403532097"}]},{"id":186,"name":"halal cart on 3rd and 55","city":"New York","permit_number":1887,"zip_code":10022,"lat":40.7588,"lon":-73.9686,"description":null,"rating":null,"photos":[{"image_url":"/system/images/171/medium/1403532141878.jpg?1403532185"}]},{"id":187,"name":"coffee cart on 3rd and 54","city":"New York","permit_number":1342,"zip_code":10022,"lat":40.7583,"lon":-73.9694,"description":null,"rating":null,"photos":[{"image_url":"/system/images/172/medium/1403532291022.jpg?1403532306"}]},{"id":188,"name":"coffee cart on 3rd and 53","city":"New York","permit_number":1461,"zip_code":10022,"lat":40.7577,"lon":-73.9695,"description":null,"rating":null,"photos":[{"image_url":"/system/images/173/medium/1403532377675.jpg?1403532405"}]},{"id":189,"name":"juice cart on 3rd and 53","city":"New York","permit_number":839,"zip_code":10022,"lat":40.7575,"lon":-73.9694,"description":null,"rating":null,"photos":[{"image_url":"/system/images/174/medium/1403532430089.jpg?1403532444"}]},{"id":190,"name":"fruit cart on 3rd and 52","city":"New York","permit_number":2372,"zip_code":10022,"lat":40.757,"lon":-73.9697,"description":null,"rating":null,"photos":[{"image_url":"/system/images/175/medium/1403532543807.jpg?1403532558"}]},{"id":191,"name":"coffee cart on 3rd and 52","city":"New York","permit_number":1801,"zip_code":10022,"lat":40.757,"lon":-73.9698,"description":null,"rating":null,"photos":[{"image_url":"/system/images/176/medium/1403532586107.jpg?1403532602"}]},{"id":192,"name":"Coffee Cart 40 Park","city":"New York","permit_number":3900,"zip_code":10017,"lat":40.7511,"lon":-73.9787,"description":null,"rating":null,"photos":[{"image_url":"/system/images/177/medium/image.jpg?1403532609"}]},{"id":193,"name":"Herm's Box","city":"New York","permit_number":3194,"zip_code":10024,"lat":40.7879,"lon":-73.9676,"description":null,"rating":null,"photos":[{"image_url":"/system/images/178/medium/image.jpg?1403532654"}]},{"id":194,"name":"Fruit Stand Park 40","city":"New York","permit_number":2585,"zip_code":10178,"lat":40.7508,"lon":-73.9783,"description":null,"rating":null,"photos":[{"image_url":"/system/images/179/medium/image.jpg?1403532657"}]},{"id":195,"name":"coffee cart on 3rd and 52","city":"New York","permit_number":1886,"zip_code":10022,"lat":40.757,"lon":-73.9702,"description":null,"rating":null,"photos":[{"image_url":"/system/images/180/medium/1403532656385.jpg?1403532671"}]},{"id":196,"name":"Coffee Cart Park 40","city":"New York","permit_number":1654,"zip_code":10178,"lat":40.7509,"lon":-73.9781,"description":null,"rating":null,"photos":[{"image_url":"/system/images/181/medium/image.jpg?1403532773"}]},{"id":197,"name":"coffee cart on 3rd and 50","city":"New York","permit_number":3189,"zip_code":10022,"lat":40.7559,"lon":-73.9706,"description":null,"rating":null,"photos":[{"image_url":"/system/images/182/medium/1403532809258.jpg?1403532824"}]},{"id":198,"name":"Sabrett Pretzels \u0026 Hot Dogs","city":"New York","permit_number":3372,"zip_code":10025,"lat":40.7899,"lon":-73.9663,"description":null,"rating":null,"photos":[{"image_url":"/system/images/183/medium/image.jpg?1403532901"}]},{"id":199,"name":"rafiqis on 3rd and 59tg","city":"New York","permit_number":1463,"zip_code":10022,"lat":40.7559,"lon":-73.971,"description":null,"rating":null,"photos":[{"image_url":"/system/images/184/medium/1403532898140.jpg?1403532921"}]},{"id":200,"name":"Breakfast Cart","city":"New York","permit_number":2024,"zip_code":10016,"lat":40.7504,"lon":-73.9792,"description":null,"rating":null,"photos":[{"image_url":"/system/images/185/medium/image.jpg?1403532931"}]},{"id":201,"name":"coffee cart on 3rd and 49","city":"New York","permit_number":2516,"zip_code":10017,"lat":40.7552,"lon":-73.9714,"description":null,"rating":null,"photos":[{"image_url":"/system/images/186/medium/1403532998932.jpg?1403533013"}]},{"id":202,"name":"Coffee Cart 38 Park","city":"New York","permit_number":1687,"zip_code":10016,"lat":40.7494,"lon":-73.9796,"description":null,"rating":null,"photos":[{"image_url":"/system/images/187/medium/image.jpg?1403533042"}]},{"id":203,"name":"fruit cart on 3rd and 48","city":"New York","permit_number":4470,"zip_code":10017,"lat":40.7549,"lon":-73.9719,"description":null,"rating":null,"photos":[{"image_url":"/system/images/188/medium/1403533094192.jpg?1403533108"}]},{"id":204,"name":"Coffee Cart","city":"New York","permit_number":2344,"zip_code":10025,"lat":40.7919,"lon":-73.9651,"description":null,"rating":null,"photos":[{"image_url":"/system/images/189/medium/image.jpg?1403533145"}]},{"id":205,"name":"coffee cart on 3rd and 48","city":"New York","permit_number":2007,"zip_code":10017,"lat":40.7546,"lon":-73.9718,"description":null,"rating":null,"photos":[{"image_url":"/system/images/190/medium/1403533163820.jpg?1403533181"}]},{"id":206,"name":"Hot Dog Cart Park 36","city":"New York","permit_number":1822,"zip_code":10016,"lat":40.7484,"lon":-73.9807,"description":null,"rating":null,"photos":[{"image_url":"/system/images/191/medium/image.jpg?1403533195"}]},{"id":207,"name":"halal cart on 3rd and 48","city":"New York","permit_number":3167,"zip_code":10017,"lat":40.7547,"lon":-73.9718,"description":null,"rating":null,"photos":[{"image_url":"/system/images/192/medium/1403533232326.jpg?1403533275"}]},{"id":208,"name":"Breakfast Cart Park 34","city":"New York","permit_number":3488,"zip_code":10016,"lat":40.7469,"lon":-73.9815,"description":null,"rating":null,"photos":[{"image_url":"/system/images/193/medium/image.jpg?1403533359"}]},{"id":209,"name":"Basem","city":"New York","permit_number":2674,"zip_code":10016,"lat":40.7469,"lon":-73.9814,"description":null,"rating":null,"photos":[{"image_url":"/system/images/194/medium/image.jpg?1403533490"}]},{"id":210,"name":"hotdog cart on lex and 49","city":"New York","permit_number":1526,"zip_code":10017,"lat":40.7558,"lon":-73.9729,"description":null,"rating":null,"photos":[{"image_url":"/system/images/195/medium/1403533540021.jpg?1403533553"}]},{"id":211,"name":"Breakfast Cart Park 33","city":"New York","permit_number":4080,"zip_code":10016,"lat":40.7465,"lon":-73.982,"description":null,"rating":null,"photos":[{"image_url":"/system/images/196/medium/image.jpg?1403533586"}]},{"id":212,"name":"Fresh Juices and Smoothies","city":"New York","permit_number":267,"zip_code":10016,"lat":40.7461,"lon":-73.9824,"description":null,"rating":null,"photos":[{"image_url":"/system/images/197/medium/image.jpg?1403533637"}]},{"id":213,"name":"coffee cart on lex and 50","city":"New York","permit_number":1283,"zip_code":10022,"lat":40.7566,"lon":-73.9725,"description":null,"rating":null,"photos":[{"image_url":"/system/images/198/medium/1403533675458.jpg?1403533686"}]},{"id":214,"name":"Coffee Cart 32 Park","city":"New York","permit_number":2264,"zip_code":10016,"lat":40.7459,"lon":-73.9822,"description":null,"rating":null,"photos":[{"image_url":"/system/images/199/medium/image.jpg?1403533695"}]},{"id":215,"name":"Rafiqi's","city":"New York","permit_number":3363,"zip_code":10016,"lat":40.7458,"lon":-73.9821,"description":null,"rating":null,"photos":[{"image_url":"/system/images/200/medium/image.jpg?1403533758"}]},{"id":216,"name":"fruit cart on lex and 50","city":"New York","permit_number":2036,"zip_code":10022,"lat":40.7566,"lon":-73.9723,"description":null,"rating":null,"photos":[{"image_url":"/system/images/203/medium/1403533822395.jpg?1403533904"}]},{"id":217,"name":"Coffee Cart 32 Park","city":"New York","permit_number":2249,"zip_code":10016,"lat":40.7459,"lon":-73.9822,"description":null,"rating":null,"photos":[{"image_url":"/system/images/201/medium/image.jpg?1403533829"}]},{"id":218,"name":"Breakfast Cart Park 32","city":"New York","permit_number":2683,"zip_code":10016,"lat":40.7457,"lon":-73.982,"description":null,"rating":null,"photos":[{"image_url":"/system/images/202/medium/image.jpg?1403533896"}]},{"id":219,"name":"Fruit Stand Park 32","city":"New York","permit_number":2241,"zip_code":10016,"lat":40.7455,"lon":-73.982,"description":null,"rating":null,"photos":[{"image_url":"/system/images/204/medium/image.jpg?1403533956"}]},{"id":220,"name":"coffee cart on lex and 51","city":"New York","permit_number":4321,"zip_code":10022,"lat":40.7572,"lon":-73.9719,"description":null,"rating":null,"photos":[{"image_url":"/system/images/205/medium/1403533983460.jpg?1403534003"}]},{"id":221,"name":"Breakfast \u0026 Lunch Park 31","city":"New York","permit_number":3605,"zip_code":10016,"lat":40.7448,"lon":-73.9827,"description":null,"rating":null,"photos":[{"image_url":"/system/images/206/medium/image.jpg?1403534053"}]},{"id":222,"name":"fruit cart on lex and 51","city":"New York","permit_number":730,"zip_code":10022,"lat":40.7572,"lon":-73.972,"description":null,"rating":null,"photos":[{"image_url":"/system/images/207/medium/1403534116831.jpg?1403534142"}]},{"id":223,"name":"hotdog cart on lex and 52","city":"New York","permit_number":2733,"zip_code":10022,"lat":40.7579,"lon":-73.9715,"description":null,"rating":null,"photos":[{"image_url":"/system/images/208/medium/1403534224009.jpg?1403534244"}]},{"id":224,"name":"Breakfast Cart Park 29","city":"New York","permit_number":1496,"zip_code":10016,"lat":40.7438,"lon":-73.9836,"description":null,"rating":null,"photos":[{"image_url":"/system/images/209/medium/image.jpg?1403534287"}]},{"id":225,"name":"coffee cart on lex and 52","city":"New York","permit_number":2582,"zip_code":10022,"lat":40.7578,"lon":-73.9715,"description":null,"rating":null,"photos":[{"image_url":"/system/images/210/medium/1403534281610.jpg?1403534298"}]},{"id":226,"name":"Halal Food Deshi","city":"New York","permit_number":4253,"zip_code":10016,"lat":40.7439,"lon":-73.9836,"description":null,"rating":null,"photos":[{"image_url":"/system/images/211/medium/image.jpg?1403534335"}]},{"id":227,"name":"hotdog cart on lex and 52 northeast","city":"New York","permit_number":1384,"zip_code":10022,"lat":40.7578,"lon":-73.9715,"description":null,"rating":null,"photos":[{"image_url":"/system/images/212/medium/1403534398806.jpg?1403534413"}]},{"id":228,"name":"Fruit Stand Park 28","city":"New York","permit_number":3896,"zip_code":10016,"lat":40.7434,"lon":-73.9838,"description":null,"rating":null,"photos":[{"image_url":"/system/images/213/medium/image.jpg?1403534423"}]},{"id":229,"name":"coffee cart on lex and 52","city":"New York","permit_number":1618,"zip_code":10022,"lat":40.7578,"lon":-73.9715,"description":null,"rating":null,"photos":[{"image_url":"/system/images/214/medium/1403534447209.jpg?1403534464"}]},{"id":230,"name":"fruit cart on lex and 52","city":"New York","permit_number":2220,"zip_code":10022,"lat":40.7578,"lon":-73.9712,"description":null,"rating":null,"photos":[{"image_url":"/system/images/215/medium/1403534510697.jpg?1403534525"}]},{"id":231,"name":"Coffee etc.","city":"New York","permit_number":3082,"zip_code":10026,"lat":40.8003,"lon":-73.9591,"description":null,"rating":null,"photos":[{"image_url":"/system/images/216/medium/image.jpg?1403534546"}]},{"id":232,"name":"juice cart on lex and 52","city":"New York","permit_number":2990,"zip_code":10022,"lat":40.7578,"lon":-73.9713,"description":null,"rating":null,"photos":[{"image_url":"/system/images/217/medium/1403534575673.jpg?1403534592"}]},{"id":233,"name":"Coffee Cart 27 Park","city":"New York","permit_number":2745,"zip_code":10016,"lat":40.7428,"lon":-73.9847,"description":null,"rating":null,"photos":[{"image_url":"/system/images/218/medium/image.jpg?1403534742"}]},{"id":234,"name":"Mexican food cart on lex and 55","city":"New York","permit_number":3245,"zip_code":10022,"lat":40.7595,"lon":-73.9701,"description":null,"rating":null,"photos":[{"image_url":"/system/images/219/medium/1403534837110.jpg?1403534850"}]},{"id":235,"name":"NYC Bagel \u0026 Coffee Company","city":"New York","permit_number":4443,"zip_code":10010,"lat":40.7417,"lon":-73.9857,"description":null,"rating":null,"photos":[{"image_url":"/system/images/220/medium/image.jpg?1403534907"}]},{"id":236,"name":"coffee cart on lex and 56","city":"New York","permit_number":1847,"zip_code":10022,"lat":40.7603,"lon":-73.9697,"description":null,"rating":null,"photos":[{"image_url":"/system/images/221/medium/1403534939396.jpg?1403534957"}]},{"id":237,"name":"Coffee Cart 24 Park","city":"New York","permit_number":1682,"zip_code":10010,"lat":40.7408,"lon":-73.9859,"description":null,"rating":null,"photos":[{"image_url":"/system/images/222/medium/image.jpg?1403535018"}]},{"id":238,"name":"coffee cart on lex and 56","city":"New York","permit_number":3232,"zip_code":10022,"lat":40.7612,"lon":-73.9691,"description":null,"rating":null,"photos":[{"image_url":"/system/images/223/medium/1403535052550.jpg?1403535080"}]},{"id":239,"name":"Fruit Stand Park 24","city":"New York","permit_number":665,"zip_code":10010,"lat":40.7407,"lon":-73.9857,"description":null,"rating":null,"photos":[{"image_url":"/system/images/224/medium/image.jpg?1403535100"}]},{"id":240,"name":"Rafiqi's","city":"New York","permit_number":2229,"zip_code":10010,"lat":40.7407,"lon":-73.9857,"description":null,"rating":null,"photos":[{"image_url":"/system/images/225/medium/image.jpg?1403535136"}]},{"id":241,"name":"nuts4nuts on lex and 56","city":"New York","permit_number":2131,"zip_code":10022,"lat":40.7612,"lon":-73.9691,"description":null,"rating":null,"photos":[{"image_url":"/system/images/226/medium/1403535138970.jpg?1403535160"}]},{"id":242,"name":"hotdog cart on lex and 58","city":"New York","permit_number":3221,"zip_code":10022,"lat":40.7616,"lon":-73.969,"description":null,"rating":null,"photos":[{"image_url":"/system/images/227/medium/1403535259105.jpg?1403535300"}]},{"id":243,"name":"Habibi Halal Food","city":"New York","permit_number":3681,"zip_code":10010,"lat":40.7398,"lon":-73.9859,"description":null,"rating":null,"photos":[{"image_url":"/system/images/228/medium/image.jpg?1403535318"}]},{"id":244,"name":"coffee cart on lex and 58","city":"New York","permit_number":3015,"zip_code":10022,"lat":40.7616,"lon":-73.969,"description":null,"rating":null,"photos":[{"image_url":"/system/images/229/medium/1403535326234.jpg?1403535341"}]},{"id":245,"name":"Abu tariq halal food in lex and 58","city":"New York","permit_number":1669,"zip_code":10022,"lat":40.7618,"lon":-73.9685,"description":null,"rating":null,"photos":[{"image_url":"/system/images/230/medium/1403535440452.jpg?1403535454"}]},{"id":246,"name":"Breakfast Cart Park 28","city":"New York","permit_number":2073,"zip_code":10010,"lat":40.7393,"lon":-73.9869,"description":null,"rating":null,"photos":[{"image_url":"/system/images/231/medium/image.jpg?1403535565"}]},{"id":247,"name":"Halal Food Park 21","city":"New York","permit_number":489,"zip_code":10010,"lat":40.7386,"lon":-73.9873,"description":null,"rating":null,"photos":[{"image_url":"/system/images/232/medium/image.jpg?1403535641"}]},{"id":248,"name":"halal cart on lex and 59","city":"New York","permit_number":2774,"zip_code":10022,"lat":40.7623,"lon":-73.9683,"description":null,"rating":null,"photos":[{"image_url":"/system/images/233/medium/1403535632433.jpg?1403535654"}]},{"id":249,"name":"coffee cart on lex and 59","city":"New York","permit_number":1484,"zip_code":10022,"lat":40.7623,"lon":-73.9684,"description":null,"rating":null,"photos":[{"image_url":"/system/images/234/medium/1403535710322.jpg?1403535722"}]},{"id":250,"name":"Halal Food","city":"New York","permit_number":4087,"zip_code":10025,"lat":40.7954,"lon":-73.9654,"description":null,"rating":null,"photos":[{"image_url":"/system/images/235/medium/image.jpg?1403535766"}]},{"id":251,"name":"hotdog cart on lex and 58","city":"New York","permit_number":3495,"zip_code":10022,"lat":40.7623,"lon":-73.9683,"description":null,"rating":null,"photos":[{"image_url":"/system/images/236/medium/1403535768515.jpg?1403535792"}]},{"id":252,"name":"Absolute Taste of Hellas Greek","city":"New York","permit_number":4126,"zip_code":10003,"lat":40.7374,"lon":-73.9885,"description":null,"rating":null,"photos":[{"image_url":"/system/images/237/medium/image.jpg?1403535914"}]},{"id":253,"name":"new York lunch box","city":"New York","permit_number":2880,"zip_code":10022,"lat":40.7623,"lon":-73.9684,"description":null,"rating":null,"photos":[{"image_url":"/system/images/238/medium/1403535952310.jpg?1403535968"}]},{"id":254,"name":"Sam \u0026 Moe Coffee Place","city":"New York","permit_number":1765,"zip_code":10003,"lat":40.7369,"lon":-73.9885,"description":null,"rating":null,"photos":[{"image_url":"/system/images/239/medium/image.jpg?1403535998"}]},{"id":255,"name":"Ali baba halal food","city":"New York","permit_number":3467,"zip_code":10022,"lat":40.7618,"lon":-73.9668,"description":null,"rating":null,"photos":[{"image_url":"/system/images/240/medium/1403536059629.jpg?1403536091"}]},{"id":256,"name":"coffee cart on lex and 60","city":"New York","permit_number":3649,"zip_code":10065,"lat":40.7629,"lon":-73.9678,"description":null,"rating":null,"photos":[{"image_url":"/system/images/241/medium/1403536128215.jpg?1403536143"}]},{"id":257,"name":"hotdog cart on lex and 60","city":"New York","permit_number":2647,"zip_code":10065,"lat":40.7628,"lon":-73.9678,"description":null,"rating":null,"photos":[{"image_url":"/system/images/242/medium/1403536243222.jpg?1403536268"}]},{"id":258,"name":"coffee cart on lex and 60","city":"New York","permit_number":2054,"zip_code":10065,"lat":40.7629,"lon":-73.9677,"description":null,"rating":null,"photos":[{"image_url":"/system/images/243/medium/1403536315419.jpg?1403536328"}]},{"id":259,"name":"Coffee Cart 15 Union Square E","city":"New York","permit_number":3918,"zip_code":10003,"lat":40.7354,"lon":-73.9898,"description":null,"rating":null,"photos":[{"image_url":"/system/images/244/medium/image.jpg?1403536354"}]},{"id":260,"name":"nuts4nuts on lex and 60","city":"New York","permit_number":3909,"zip_code":10022,"lat":40.7629,"lon":-73.9678,"description":null,"rating":null,"photos":[{"image_url":"/system/images/245/medium/1403536386758.jpg?1403536404"}]},{"id":261,"name":"hotdog cart on lex and 60","city":"New York","permit_number":3945,"zip_code":10065,"lat":40.7629,"lon":-73.9678,"description":null,"rating":null,"photos":[{"image_url":"/system/images/246/medium/1403536439900.jpg?1403536454"}]},{"id":262,"name":"fruit cart on lex and 61","city":"New York","permit_number":11111,"zip_code":10065,"lat":40.7633,"lon":-73.9676,"description":null,"rating":null,"photos":[{"image_url":"/system/images/247/medium/1403536593579.jpg?1403536631"}]},{"id":263,"name":"coffee cart on lex and 61","city":"New York","permit_number":2144,"zip_code":10065,"lat":40.7635,"lon":-73.9674,"description":null,"rating":null,"photos":[{"image_url":"/system/images/248/medium/1403536677485.jpg?1403536689"}]},{"id":264,"name":"Sam's Halal Food","city":"New York","permit_number":3645,"zip_code":10025,"lat":40.7934,"lon":-73.9672,"description":null,"rating":null,"photos":[{"image_url":"/system/images/249/medium/image.jpg?1403536697"}]},{"id":265,"name":"Bagels \u0026 Coffee","city":"New York","permit_number":3555,"zip_code":10025,"lat":40.7911,"lon":-73.9668,"description":null,"rating":null,"photos":[{"image_url":"/system/images/250/medium/image.jpg?1403536789"}]},{"id":266,"name":"Fruit (Temporary Permit)","city":"New York","permit_number":747,"zip_code":10025,"lat":40.7909,"lon":-73.9668,"description":null,"rating":null,"photos":[{"image_url":"/system/images/251/medium/image.jpg?1403536850"}]},{"id":267,"name":"barhosha hotdog","city":"New York","permit_number":247,"zip_code":10065,"lat":40.7646,"lon":-73.9664,"description":null,"rating":null,"photos":[{"image_url":"/system/images/252/medium/1403536832629.jpg?1403536856"}]},{"id":268,"name":"Vegetable Juices \u0026 Fruit Smoothies (Temporary Permit)","city":"New York","permit_number":578,"zip_code":10025,"lat":40.7909,"lon":-73.9668,"description":null,"rating":null,"photos":[{"image_url":"/system/images/253/medium/image.jpg?1403536952"}]},{"id":269,"name":"coffee cart on lex and 66","city":"New York","permit_number":1964,"zip_code":10035,"lat":40.7666,"lon":-73.9652,"description":null,"rating":null,"photos":[{"image_url":"/system/images/254/medium/1403537019792.jpg?1403537048"}]},{"id":270,"name":"Fruit Vendor","city":"New York","permit_number":2297,"zip_code":10025,"lat":40.7951,"lon":-73.9674,"description":null,"rating":null,"photos":[{"image_url":"/system/images/255/medium/image.jpg?1403537196"}]},{"id":271,"name":"hotdog cart on lex and 69","city":"New York","permit_number":2606,"zip_code":10021,"lat":40.7684,"lon":-73.9637,"description":null,"rating":null,"photos":[{"image_url":"/system/images/256/medium/1403537228283.jpg?1403537244"}]},{"id":272,"name":"Hot Dogs \u0026 Potato Chips","city":"New York","permit_number":3293,"zip_code":10025,"lat":40.7907,"lon":-73.968,"description":null,"rating":null,"photos":[{"image_url":"/system/images/257/medium/image.jpg?1403537397"}]},{"id":273,"name":"Fruit","city":"New York","permit_number":4353,"zip_code":10025,"lat":40.7907,"lon":-73.968,"description":null,"rating":null,"photos":[{"image_url":"/system/images/258/medium/image.jpg?1403537449"}]},{"id":274,"name":"fruit cart on lex and 72","city":"New York","permit_number":650,"zip_code":10021,"lat":40.7705,"lon":-73.9621,"description":null,"rating":null,"photos":[{"image_url":"/system/images/259/medium/1403537538769.jpg?1403537557"}]},{"id":275,"name":"Coffee \u0026 Gyro","city":"New York","permit_number":3985,"zip_code":10025,"lat":40.7907,"lon":-73.968,"description":null,"rating":null,"photos":[{"image_url":"/system/images/260/medium/image.jpg?1403537570"}]},{"id":276,"name":"Fruit","city":"New York","permit_number":4293,"zip_code":10025,"lat":40.7906,"lon":-73.9674,"description":null,"rating":null,"photos":[{"image_url":"/system/images/261/medium/image.jpg?1403537765"}]},{"id":277,"name":"Halal Food","city":"New York","permit_number":3627,"zip_code":10025,"lat":40.7905,"lon":-73.968,"description":null,"rating":null,"photos":[{"image_url":"/system/images/262/medium/image.jpg?1403537860"}]},{"id":278,"name":"Halal Breakfast \u0026 Lunch","city":"New York","permit_number":2668,"zip_code":10024,"lat":40.7889,"lon":-73.9743,"description":null,"rating":null,"photos":[{"image_url":"/system/images/263/medium/image.jpg?1403538160"}]},{"id":279,"name":"Breakfast \u0026 More","city":"New York","permit_number":4315,"zip_code":10024,"lat":40.785,"lon":-73.9684,"description":null,"rating":null,"photos":[{"image_url":"/system/images/264/medium/image.jpg?1403538343"}]},{"id":280,"name":"Certified Halal Hot Dog \u0026 Pretzel","city":"New York","permit_number":2539,"zip_code":10024,"lat":40.7829,"lon":-73.9672,"description":null,"rating":null,"photos":[{"image_url":"/system/images/265/medium/image.jpg?1403538436"}]},{"id":281,"name":"Fruit Vendor","city":"New York","permit_number":3385,"zip_code":10024,"lat":40.7853,"lon":-73.9686,"description":null,"rating":null,"photos":[{"image_url":"/system/images/266/medium/image.jpg?1403538721"}]},{"id":282,"name":"Breakfast Cart","city":"New York","permit_number":3537,"zip_code":10013,"lat":40.7232,"lon":-74.005,"description":null,"rating":null,"photos":[{"image_url":"/system/images/267/medium/image.jpg?1403619039"}]},{"id":283,"name":"Fruit Stand","city":"New York","permit_number":5,"zip_code":10001,"lat":40.7309,"lon":-74.0016,"description":null,"rating":null,"photos":[{"image_url":"/system/images/268/medium/image.jpg?1403619592"}]},{"id":284,"name":"Breakfast Cart","city":"New York","permit_number":2506,"zip_code":10014,"lat":40.731,"lon":-74.0015,"description":null,"rating":null,"photos":[{"image_url":"/system/images/269/medium/image.jpg?1403619643"}]},{"id":285,"name":"Mexican Cuisine","city":"New York","permit_number":3502,"zip_code":10012,"lat":40.7317,"lon":-74.0008,"description":null,"rating":null,"photos":[{"image_url":"/system/images/270/medium/image.jpg?1403619823"}]},{"id":286,"name":"Sammay's Halal Food","city":"New York","permit_number":3415,"zip_code":10011,"lat":40.7319,"lon":-74.0006,"description":null,"rating":null,"photos":[{"image_url":"/system/images/271/medium/image.jpg?1403620515"}]},{"id":288,"name":"Halal and Lunch Cart","city":"New York","permit_number":4360,"zip_code":10011,"lat":40.7371,"lon":-73.997,"description":null,"rating":null,"photos":[{"image_url":"/system/images/272/medium/image.jpg?1403621121"}]},{"id":289,"name":"Fruit Stand","city":"New York","permit_number":3476,"zip_code":11215,"lat":40.7371,"lon":-73.9971,"description":null,"rating":null,"photos":[{"image_url":"/system/images/273/medium/image.jpg?1403621154"}]},{"id":290,"name":"Breakfast Cart","city":"New York","permit_number":1584,"zip_code":10011,"lat":40.7372,"lon":-73.9969,"description":null,"rating":null,"photos":[{"image_url":"/system/images/274/medium/image.jpg?1403621245"}]},{"id":291,"name":"Breakfast and Lunch Cart","city":"New York","permit_number":2857,"zip_code":10011,"lat":40.7362,"lon":-73.9937,"description":null,"rating":null,"photos":[{"image_url":"/system/images/278/medium/image.jpg?1403621922"}]},{"id":292,"name":"Hotdog and Lunch Cart","city":"New York","permit_number":2302,"zip_code":10003,"lat":40.7359,"lon":-73.9936,"description":null,"rating":null,"photos":[{"image_url":"/system/images/275/medium/image.jpg?1403621568"}]},{"id":293,"name":"Breakfast Cart","city":"New York","permit_number":3331,"zip_code":10011,"lat":40.7358,"lon":-73.9938,"description":null,"rating":null,"photos":[{"image_url":"/system/images/276/medium/image.jpg?1403621743"}]},{"id":294,"name":"Halal Cart","city":"New York","permit_number":4265,"zip_code":10011,"lat":40.7358,"lon":-73.9938,"description":null,"rating":null,"photos":[{"image_url":"/system/images/277/medium/image.jpg?1403621810"}]},{"id":295,"name":"Pretzel \u0026 Kebab Cart","city":"New York","permit_number":748,"zip_code":10028,"lat":40.781,"lon":-73.959,"description":null,"rating":null,"photos":[{"image_url":"/system/images/279/medium/image.jpg?1403715184"}]},{"id":296,"name":"Breakfast Cart Madison 86","city":"New York","permit_number":3515,"zip_code":10028,"lat":40.7791,"lon":-73.96,"description":null,"rating":null,"photos":[{"image_url":"/system/images/280/medium/image.jpg?1403715407"}]},{"id":297,"name":"Hot Dog Cart Madison 81","city":"New York","permit_number":2030,"zip_code":10028,"lat":40.7777,"lon":-73.961,"description":null,"rating":null,"photos":[{"image_url":"/system/images/281/medium/image.jpg?1403715565"}]},{"id":298,"name":"Halal Cart Madison 84","city":"New York","permit_number":1625,"zip_code":10028,"lat":40.7773,"lon":-73.9612,"description":null,"rating":null,"photos":[{"image_url":"/system/images/282/medium/image.jpg?1403715606"}]},{"id":299,"name":"Halal Cart Madison 77","city":"New York","permit_number":3843,"zip_code":10075,"lat":40.775,"lon":-73.9629,"description":null,"rating":null,"photos":[{"image_url":"/system/images/283/medium/image.jpg?1403715867"}]},{"id":300,"name":"Halal Cart Madison 72","city":"New York","permit_number":1877,"zip_code":10021,"lat":40.7719,"lon":-73.9655,"description":null,"rating":null,"photos":[{"image_url":"/system/images/284/medium/image.jpg?1403716341"}]},{"id":301,"name":"Hot Dog Cart Madison 71","city":"New York","permit_number":2085,"zip_code":10021,"lat":40.7711,"lon":-73.9661,"description":null,"rating":null,"photos":[{"image_url":"/system/images/285/medium/image.jpg?1403716432"}]},{"id":302,"name":"Halal Cart Madison 69","city":"New York","permit_number":1888,"zip_code":10021,"lat":40.77,"lon":-73.9671,"description":null,"rating":null,"photos":[{"image_url":"/system/images/286/medium/image.jpg?1403716581"}]},{"id":303,"name":"Breakfast Cart Madison 69","city":"New York","permit_number":3095,"zip_code":10021,"lat":40.7698,"lon":-73.9667,"description":null,"rating":null,"photos":[{"image_url":"/system/images/287/medium/image.jpg?1403716682"}]},{"id":304,"name":"Halal Cart Madison 66","city":"New York","permit_number":3449,"zip_code":10065,"lat":40.7682,"lon":-73.9684,"description":null,"rating":null,"photos":[{"image_url":"/system/images/288/medium/image.jpg?1403716949"}]},{"id":305,"name":"Breakfast Cart Madison 66","city":"New York","permit_number":3507,"zip_code":10065,"lat":40.7683,"lon":-73.9685,"description":null,"rating":null,"photos":[{"image_url":"/system/images/289/medium/image.jpg?1403716990"}]},{"id":306,"name":"Hot Dog Cart Madison 68","city":"New York","permit_number":92,"zip_code":10065,"lat":40.7682,"lon":-73.9683,"description":null,"rating":null,"photos":[{"image_url":"/system/images/290/medium/image.jpg?1403716998"}]},{"id":307,"name":"Rayan Express Halal Food","city":"New York","permit_number":4055,"zip_code":10065,"lat":40.7674,"lon":-73.9688,"description":null,"rating":null,"photos":[{"image_url":"/system/images/291/medium/image.jpg?1403717077"}]},{"id":308,"name":"Hot Dog Cart Madison 62","city":"New York","permit_number":670,"zip_code":10065,"lat":40.7654,"lon":-73.9698,"description":null,"rating":null,"photos":[{"image_url":"/system/images/292/medium/image.jpg?1403717439"}]},{"id":309,"name":"Otro Rollo Cafe","city":"New York","permit_number":4054,"zip_code":10065,"lat":40.7654,"lon":-73.9698,"description":null,"rating":null,"photos":[{"image_url":"/system/images/293/medium/image.jpg?1403717456"}]},{"id":310,"name":"Halal Cart Madison 64","city":"New York","permit_number":2339,"zip_code":10065,"lat":40.7654,"lon":-73.9698,"description":null,"rating":null,"photos":[{"image_url":"/system/images/294/medium/image.jpg?1403717465"}]},{"id":311,"name":"Tiny Dragon's Grille","city":"New York","permit_number":2328,"zip_code":10065,"lat":40.7653,"lon":-73.9698,"description":null,"rating":null,"photos":[{"image_url":"/system/images/295/medium/image.jpg?1403717533"}]},{"id":312,"name":"Hot Dog Cart Madison 61","city":"New York","permit_number":1663,"zip_code":10065,"lat":40.7648,"lon":-73.9704,"description":null,"rating":null,"photos":[{"image_url":"/system/images/296/medium/image.jpg?1403717642"}]},{"id":313,"name":"Samir Halal Food","city":"New York","permit_number":4057,"zip_code":10065,"lat":40.7649,"lon":-73.9707,"description":null,"rating":null,"photos":[{"image_url":"/system/images/297/medium/image.jpg?1403717732"}]},{"id":314,"name":"Hot Dog Cart Madison 60","city":"New York","permit_number":745,"zip_code":10022,"lat":40.7641,"lon":-73.9708,"description":null,"rating":null,"photos":[{"image_url":"/system/images/298/medium/image.jpg?1403717865"}]},{"id":315,"name":"Halal Cart Madison 60","city":"New York","permit_number":2627,"zip_code":10022,"lat":40.7643,"lon":-73.9712,"description":null,"rating":null,"photos":[{"image_url":"/system/images/299/medium/image.jpg?1403717969"}]},{"id":316,"name":"Mister Softee Truck","city":"New York","permit_number":385,"zip_code":10065,"lat":40.7642,"lon":-73.9711,"description":null,"rating":null,"photos":[{"image_url":"/system/images/300/medium/image.jpg?1403718054"}]},{"id":317,"name":"Hot Dog Cart Madison 58","city":"New York","permit_number":3277,"zip_code":10022,"lat":40.7629,"lon":-73.9717,"description":null,"rating":null,"photos":[{"image_url":"/system/images/301/medium/image.jpg?1403718277"}]},{"id":318,"name":"Hot Dog Cart Madison 58","city":"New York","permit_number":1602,"zip_code":10022,"lat":40.7629,"lon":-73.9717,"description":null,"rating":null,"photos":[{"image_url":"/system/images/302/medium/image.jpg?1403718440"}]},{"id":319,"name":"Halal Cart Madison 59","city":"New York","permit_number":1689,"zip_code":10022,"lat":40.7622,"lon":-73.9722,"description":null,"rating":null,"photos":[{"image_url":"/system/images/303/medium/image.jpg?1403718463"}]},{"id":320,"name":"Hot Dog Cart Madison 56","city":"New York","permit_number":845,"zip_code":10022,"lat":40.7615,"lon":-73.9722,"description":null,"rating":null,"photos":[{"image_url":"/system/images/304/medium/image.jpg?1403718689"}]},{"id":321,"name":"Hot Dog Cart Madison 55","city":"New York","permit_number":4071,"zip_code":10022,"lat":40.7609,"lon":-73.973,"description":null,"rating":null,"photos":[{"image_url":"/system/images/305/medium/image.jpg?1403718716"}]},{"id":322,"name":"Smoothie Cart Madison 54","city":"New York","permit_number":1723,"zip_code":10022,"lat":40.7604,"lon":-73.9734,"description":null,"rating":null,"photos":[{"image_url":"/system/images/306/medium/image.jpg?1403719421"}]},{"id":323,"name":"Fruit Stand Madison 54","city":"New York","permit_number":1780,"zip_code":10022,"lat":40.7604,"lon":-73.9738,"description":null,"rating":null,"photos":[{"image_url":"/system/images/307/medium/image.jpg?1403719437"}]},{"id":324,"name":"Ice Cream Truck","city":"New York","permit_number":832,"zip_code":10022,"lat":40.7598,"lon":-73.9745,"description":null,"rating":null,"photos":[{"image_url":"/system/images/308/medium/image.jpg?1403719590"}]},{"id":325,"name":"Hot dogs \u0026 Pretzels (Temporary permit)","city":"Brooklyn","permit_number":662,"zip_code":11201,"lat":40.7039,"lon":-73.9905,"description":null,"rating":null,"photos":[{"image_url":"/system/images/309/medium/image.jpg?1403799687"}]},{"id":326,"name":"Hot Dogs and Pretzels (Temporary Permit)","city":"Brooklyn","permit_number":81,"zip_code":11201,"lat":40.7002,"lon":-73.9893,"description":null,"rating":null,"photos":[{"image_url":"/system/images/310/medium/image.jpg?1403800932"}]},{"id":327,"name":"Breakfast Cart","city":"New York","permit_number":4301,"zip_code":10003,"lat":40.7351,"lon":-73.9919,"description":null,"rating":null,"photos":[{"image_url":"/system/images/311/medium/image.jpg?1403874658"}]},{"id":328,"name":"Fruit Juice and Smoothie Cart","city":"New York","permit_number":812,"zip_code":10003,"lat":40.7352,"lon":-73.9914,"description":null,"rating":null,"photos":[{"image_url":"/system/images/312/medium/image.jpg?1403874789"}]},{"id":329,"name":"Hot Dog Cart","city":"New York","permit_number":3381,"zip_code":10003,"lat":40.7353,"lon":-73.99,"description":null,"rating":null,"photos":[{"image_url":"/system/images/313/medium/image.jpg?1403875270"}]},{"id":330,"name":"Breakfast Cart","city":"New York","permit_number":2798,"zip_code":10003,"lat":40.7346,"lon":-73.9908,"description":null,"rating":null,"photos":[{"image_url":"/system/images/314/medium/image.jpg?1403875560"}]},{"id":331,"name":"Fruit Juices and Smoothie Cart","city":"New York","permit_number":2369,"zip_code":10003,"lat":40.7351,"lon":-73.9901,"description":null,"rating":null,"photos":[{"image_url":"/system/images/315/medium/image.jpg?1403875629"}]},{"id":332,"name":"Rafiqi's Halal Cart","city":"New York","permit_number":3145,"zip_code":10003,"lat":40.7306,"lon":-73.9922,"description":null,"rating":null,"photos":[{"image_url":"/system/images/316/medium/image.jpg?1403876206"}]},{"id":333,"name":"Fruit Stand","city":"New York","permit_number":2704,"zip_code":10003,"lat":40.7301,"lon":-73.9929,"description":null,"rating":null,"photos":[{"image_url":"/system/images/317/medium/image.jpg?1403876319"}]},{"id":334,"name":"Halal and Hot Dog Cart","city":"New York","permit_number":3011,"zip_code":10003,"lat":40.7299,"lon":-73.9931,"description":null,"rating":null,"photos":[{"image_url":"/system/images/318/medium/image.jpg?1403876386"}]},{"id":335,"name":"Breakfast Cart","city":"New York","permit_number":1911,"zip_code":10003,"lat":40.7292,"lon":-73.9932,"description":null,"rating":null,"photos":[{"image_url":"/system/images/319/medium/image.jpg?1403876517"}]},{"id":336,"name":"Breakfast Cart","city":"New York","permit_number":1932,"zip_code":10012,"lat":40.7266,"lon":-73.9956,"description":null,"rating":null,"photos":[{"image_url":"/system/images/320/medium/image.jpg?1403877162"}]},{"id":337,"name":"Halal Food","city":"New York","permit_number":3177,"zip_code":10023,"lat":40.7799,"lon":-73.9768,"description":null,"rating":null,"photos":[{"image_url":"/system/images/321/medium/image.jpg?1403877209"}]},{"id":338,"name":"Rafiqi's Halal Truck","city":"New York","permit_number":4092,"zip_code":10012,"lat":40.7263,"lon":-73.9958,"description":null,"rating":null,"photos":[{"image_url":"/system/images/322/medium/image.jpg?1403877228"}]},{"id":339,"name":"Fruit (temporary permit)","city":"New York","permit_number":99,"zip_code":10023,"lat":40.7798,"lon":-73.977,"description":null,"rating":null,"photos":[{"image_url":"/system/images/323/medium/image.jpg?1403877258"}]},{"id":340,"name":"Fruit Juice and Smoothie Cart","city":"New York","permit_number":2006,"zip_code":10012,"lat":40.726,"lon":-73.996,"description":null,"rating":null,"photos":[{"image_url":"/system/images/324/medium/image.jpg?1403877338"}]},{"id":341,"name":"Breakfast Cart","city":"New York","permit_number":2147,"zip_code":10012,"lat":40.7253,"lon":-73.9966,"description":null,"rating":null,"photos":[{"image_url":"/system/images/325/medium/image.jpg?1403877474"}]},{"id":342,"name":"Jimmy's Fresh Food","city":"New York","permit_number":2277,"zip_code":10023,"lat":40.7776,"lon":-73.9785,"description":null,"rating":null,"photos":[{"image_url":"/system/images/326/medium/image.jpg?1403877481"}]},{"id":343,"name":"Breakfast Cart","city":"New York","permit_number":2453,"zip_code":10036,"lat":40.7252,"lon":-73.9969,"description":null,"rating":null,"photos":[{"image_url":"/system/images/327/medium/image.jpg?1403877584"}]},{"id":344,"name":"Halal and Hot Dog Cart","city":"New York","permit_number":4449,"zip_code":10012,"lat":40.7253,"lon":-73.9961,"description":null,"rating":null,"photos":[{"image_url":"/system/images/328/medium/image.jpg?1403877711"}]},{"id":345,"name":"Halal and Hot Dog Cart","city":"New York","permit_number":3306,"zip_code":10012,"lat":40.7257,"lon":-73.997,"description":null,"rating":null,"photos":[{"image_url":"/system/images/329/medium/image.jpg?1403877836"}]},{"id":346,"name":"Fruit Vendor (Temporary Permit)","city":"New York","permit_number":793,"zip_code":10023,"lat":40.7749,"lon":-73.9812,"description":null,"rating":null,"photos":[{"image_url":"/system/images/330/medium/image.jpg?1403877874"}]},{"id":347,"name":"Breakfast \u0026 More","city":"New York","permit_number":1560,"zip_code":10023,"lat":40.7744,"lon":-73.9811,"description":null,"rating":null,"photos":[{"image_url":"/system/images/331/medium/image.jpg?1403877952"}]},{"id":348,"name":"Quick Stop","city":"New York","permit_number":1803,"zip_code":10023,"lat":40.7737,"lon":-73.9816,"description":null,"rating":null,"photos":[{"image_url":"/system/images/332/medium/image.jpg?1403878084"}]},{"id":349,"name":"Breakfast Cart","city":"New York","permit_number":3876,"zip_code":10012,"lat":40.7242,"lon":-73.9975,"description":null,"rating":null,"photos":[{"image_url":"/system/images/333/medium/image.jpg?1403878091"}]},{"id":350,"name":"The Casbah Moroccan Food","city":"New York","permit_number":3193,"zip_code":10023,"lat":40.7738,"lon":-73.9818,"description":null,"rating":null,"photos":[{"image_url":"/system/images/334/medium/image.jpg?1403878203"}]},{"id":351,"name":"Sweet Barista's Coffee \u0026 Treats","city":"New York","permit_number":2028,"zip_code":10012,"lat":40.7245,"lon":-73.9976,"description":null,"rating":null,"photos":[{"image_url":"/system/images/335/medium/image.jpg?1403878269"}]},{"id":352,"name":"Halal and Lunch Cart","city":"New York","permit_number":4351,"zip_code":10012,"lat":40.7246,"lon":-73.9976,"description":null,"rating":null,"photos":[{"image_url":"/system/images/336/medium/image.jpg?1403878307"}]},{"id":353,"name":"Wafels \u0026 Dinges","city":"New York","permit_number":6146,"zip_code":10023,"lat":40.7738,"lon":-73.982,"description":null,"rating":null,"photos":[{"image_url":"/system/images/337/medium/image.jpg?1403878339"}]},{"id":354,"name":"Fruit Juice and Smoothie Cart","city":"New York","permit_number":689,"zip_code":10012,"lat":40.7248,"lon":-73.9975,"description":null,"rating":null,"photos":[{"image_url":"/system/images/338/medium/image.jpg?1403878359"}]},{"id":355,"name":"John's Breakfast (temporary permit)","city":"New York","permit_number":89,"zip_code":10023,"lat":40.7731,"lon":-73.9818,"description":null,"rating":null,"photos":[{"image_url":"/system/images/339/medium/image.jpg?1403878472"}]},{"id":356,"name":"Hot Dogs \u0026 Pretzels (temporary permit)","city":"New York","permit_number":191,"zip_code":10023,"lat":40.773,"lon":-73.9817,"description":null,"rating":null,"photos":[{"image_url":"/system/images/340/medium/image.jpg?1403878541"}]},{"id":357,"name":"Halal Food","city":"New York","permit_number":3463,"zip_code":10023,"lat":40.7732,"lon":-73.9825,"description":null,"rating":null,"photos":[{"image_url":"/system/images/341/medium/image.jpg?1403878715"}]},{"id":358,"name":"Breakfast \u0026 Coffee","city":"New York","permit_number":3990,"zip_code":10023,"lat":40.7731,"lon":-73.9827,"description":null,"rating":null,"photos":[{"image_url":"/system/images/342/medium/image.jpg?1403878784"}]},{"id":359,"name":"Halal and Lunch Cart","city":"New York","permit_number":4471,"zip_code":10012,"lat":40.7238,"lon":-73.9985,"description":null,"rating":null,"photos":[{"image_url":"/system/images/343/medium/image.jpg?1403879011"}]},{"id":360,"name":"Breakfast Cart","city":"New York","permit_number":1578,"zip_code":10012,"lat":40.724,"lon":-73.9981,"description":null,"rating":null,"photos":[{"image_url":"/system/images/344/medium/image.jpg?1403879044"}]},{"id":361,"name":"Coffee \u0026 Donut","city":"New York","permit_number":1334,"zip_code":10023,"lat":40.7697,"lon":-73.9844,"description":null,"rating":null,"photos":[{"image_url":"/system/images/345/medium/image.jpg?1403879115"}]},{"id":362,"name":"Soho Mango","city":"New York","permit_number":624,"zip_code":10012,"lat":40.7231,"lon":-73.9986,"description":null,"rating":null,"photos":[{"image_url":"/system/images/348/medium/image.jpg?1403879284"}]},{"id":363,"name":"Hot Dog \u0026 Pretzels (Temporary)","city":"New York","permit_number":324,"zip_code":10023,"lat":40.7699,"lon":-73.9842,"description":null,"rating":null,"photos":[{"image_url":"/system/images/346/medium/image.jpg?1403879201"}]},{"id":364,"name":"Fruit Vendor","city":"New York","permit_number":2350,"zip_code":10023,"lat":40.7699,"lon":-73.9842,"description":null,"rating":null,"photos":[{"image_url":"/system/images/347/medium/image.jpg?1403879250"}]},{"id":365,"name":"Nuts 4 Nuts","city":"New York","permit_number":2494,"zip_code":10019,"lat":40.7695,"lon":-73.9848,"description":null,"rating":null,"photos":[{"image_url":"/system/images/349/medium/image.jpg?1403879332"}]},{"id":366,"name":"Tacos Y Quesadillas Mexico","city":"New York","permit_number":3499,"zip_code":10019,"lat":40.7691,"lon":-73.9848,"description":null,"rating":null,"photos":[{"image_url":"/system/images/350/medium/image.jpg?1403879407"}]},{"id":367,"name":"Halal Food","city":"New York","permit_number":1153,"zip_code":10019,"lat":40.7688,"lon":-73.9853,"description":null,"rating":null,"photos":[{"image_url":"/system/images/351/medium/image.jpg?1403879478"}]},{"id":368,"name":"Fruit Vendor","city":"New York","permit_number":3517,"zip_code":10019,"lat":40.7688,"lon":-73.9851,"description":null,"rating":null,"photos":[{"image_url":"/system/images/352/medium/image.jpg?1403879543"}]},{"id":369,"name":"Fruit Juice and Smoothie Cart","city":"New York","permit_number":475,"zip_code":10012,"lat":40.723,"lon":-73.9987,"description":null,"rating":null,"photos":[{"image_url":"/system/images/353/medium/image.jpg?1403879565"}]},{"id":370,"name":"Halal and Lunch Cart","city":"New York","permit_number":3438,"zip_code":10012,"lat":40.7229,"lon":-73.9986,"description":null,"rating":null,"photos":[{"image_url":"/system/images/354/medium/image.jpg?1403879580"}]},{"id":371,"name":"Hot Dog Cart","city":"New York","permit_number":231,"zip_code":10012,"lat":40.7225,"lon":-73.999,"description":null,"rating":null,"photos":[{"image_url":"/system/images/355/medium/image.jpg?1403879587"}]},{"id":372,"name":"Breakfast, Coffee, \u0026 Donuts","city":"New York","permit_number":1812,"zip_code":10019,"lat":40.7686,"lon":-73.9851,"description":null,"rating":null,"photos":[{"image_url":"/system/images/356/medium/image.jpg?1403879604"}]},{"id":373,"name":"Fresh Fruit Shake, Juice \u0026 Fruit Salad","city":"New York","permit_number":3820,"zip_code":10019,"lat":40.7687,"lon":-73.9851,"description":null,"rating":null,"photos":[{"image_url":"/system/images/357/medium/image.jpg?1403879674"}]},{"id":374,"name":"Breakfast \u0026 Coffee","city":"New York","permit_number":4217,"zip_code":10019,"lat":40.7682,"lon":-73.9844,"description":null,"rating":null,"photos":[{"image_url":"/system/images/358/medium/image.jpg?1403879790"}]},{"id":375,"name":"Hot Dog \u0026 Pretzels","city":"New York","permit_number":3781,"zip_code":10019,"lat":40.7682,"lon":-73.9842,"description":null,"rating":null,"photos":[{"image_url":"/system/images/359/medium/image.jpg?1403879857"}]},{"id":376,"name":"Sahara Halal Food","city":"New York","permit_number":4312,"zip_code":10019,"lat":40.7699,"lon":-73.988,"description":null,"rating":null,"photos":[{"image_url":"/system/images/360/medium/image.jpg?1403880267"}]},{"id":377,"name":"Alfadiwi Halal Food","city":"New York","permit_number":2436,"zip_code":10019,"lat":40.7702,"lon":-73.9872,"description":null,"rating":null,"photos":[{"image_url":"/system/images/361/medium/image.jpg?1403880379"}]},{"id":378,"name":"Breakfast \u0026 Coffee","city":"New York","permit_number":2152,"zip_code":10019,"lat":40.7703,"lon":-73.9875,"description":null,"rating":null,"photos":[{"image_url":"/system/images/362/medium/image.jpg?1403880433"}]},{"id":379,"name":"Cupcake \u0026 Smoothie Cart","city":"New York","permit_number":440,"zip_code":10012,"lat":40.7221,"lon":-73.9996,"description":null,"rating":null,"photos":[{"image_url":"/system/images/363/medium/image.jpg?1403880528"}]},{"id":380,"name":"Hot Dogs \u0026 Pretzels","city":"New York","permit_number":3402,"zip_code":10019,"lat":40.7701,"lon":-73.987,"description":null,"rating":null,"photos":[{"image_url":"/system/images/364/medium/image.jpg?1403880533"}]},{"id":381,"name":"Fruit Juice and Smoothie Cart","city":"New York","permit_number":266,"zip_code":10012,"lat":40.7218,"lon":-73.9998,"description":null,"rating":null,"photos":[{"image_url":"/system/images/365/medium/image.jpg?1403880600"}]},{"id":382,"name":"Halal Food","city":"New York","permit_number":2252,"zip_code":10019,"lat":40.7695,"lon":-73.9858,"description":null,"rating":null,"photos":[{"image_url":"/system/images/366/medium/image.jpg?1403880655"}]},{"id":383,"name":"Cupcake, Coffee, and Smoothie Cart","city":"New York","permit_number":3287,"zip_code":10012,"lat":40.7222,"lon":-73.9996,"description":null,"rating":null,"photos":[{"image_url":"/system/images/367/medium/image.jpg?1403880745"}]},{"id":384,"name":"Halal Cart","city":"New York","permit_number":4317,"zip_code":10012,"lat":40.7222,"lon":-73.9996,"description":null,"rating":null,"photos":[{"image_url":"/system/images/368/medium/image.jpg?1403880842"}]},{"id":385,"name":"Hot Dog Cart","city":"New York","permit_number":340,"zip_code":10013,"lat":40.7218,"lon":-74.0,"description":null,"rating":null,"photos":[{"image_url":"/system/images/369/medium/image.jpg?1403880961"}]},{"id":386,"name":"Hot Dog \u0026 Hot Pretzel","city":"New York","permit_number":3410,"zip_code":10023,"lat":40.7715,"lon":-73.9868,"description":null,"rating":null,"photos":[{"image_url":"/system/images/370/medium/image.jpg?1403881052"}]},{"id":387,"name":"Breakfast \u0026 Fresh Bakery","city":"New York","permit_number":3550,"zip_code":10023,"lat":40.7717,"lon":-73.9869,"description":null,"rating":null,"photos":[{"image_url":"/system/images/371/medium/image.jpg?1403881121"}]},{"id":388,"name":"Halal and Breakfast Cart","city":"New York","permit_number":3695,"zip_code":10013,"lat":40.7211,"lon":-74.0007,"description":null,"rating":null,"photos":[{"image_url":"/system/images/372/medium/image.jpg?1403881426"}]},{"id":389,"name":"Breakfast Cart","city":"New York","permit_number":2298,"zip_code":10013,"lat":40.7211,"lon":-74.0006,"description":null,"rating":null,"photos":[{"image_url":"/system/images/373/medium/image.jpg?1403881464"}]},{"id":390,"name":"Halal and Lunch Cart","city":"New York","permit_number":4163,"zip_code":10013,"lat":40.7215,"lon":-74.0003,"description":null,"rating":null,"photos":[{"image_url":"/system/images/374/medium/image.jpg?1403881537"}]},{"id":391,"name":"Halal and Lunch Cart","city":"New York","permit_number":4200,"zip_code":10013,"lat":40.7198,"lon":-74.0016,"description":null,"rating":null,"photos":[{"image_url":"/system/images/375/medium/image.jpg?1403881562"}]},{"id":392,"name":"Hot Dog Cart","city":"New York","permit_number":220,"zip_code":10013,"lat":40.7198,"lon":-74.0017,"description":null,"rating":null,"photos":[{"image_url":"/system/images/376/medium/image.jpg?1403881622"}]},{"id":393,"name":"Fruit Vendor","city":"New York","permit_number":3689,"zip_code":10023,"lat":40.7775,"lon":-73.9826,"description":null,"rating":null,"photos":[{"image_url":"/system/images/377/medium/image.jpg?1403881655"}]},{"id":394,"name":"Breakfast Cart","city":"New York","permit_number":3335,"zip_code":10013,"lat":40.7197,"lon":-74.0018,"description":null,"rating":null,"photos":[{"image_url":"/system/images/378/medium/image.jpg?1403881686"}]},{"id":395,"name":"Fruit Juice and Smoothie Cart","city":"New York","permit_number":768,"zip_code":10013,"lat":40.7198,"lon":-74.0018,"description":null,"rating":null,"photos":[{"image_url":"/system/images/379/medium/image.jpg?1403881691"}]},{"id":396,"name":"Halal Food","city":"New York","permit_number":2732,"zip_code":10023,"lat":40.7776,"lon":-73.9826,"description":null,"rating":null,"photos":[{"image_url":"/system/images/380/medium/image.jpg?1403881708"}]},{"id":397,"name":"Breakfast \u0026 Pastries","city":"New York","permit_number":2707,"zip_code":10023,"lat":40.7776,"lon":-73.9825,"description":null,"rating":null,"photos":[{"image_url":"/system/images/381/medium/image.jpg?1403881763"}]},{"id":398,"name":"Halal and Lunch Cart","city":"New York","permit_number":3639,"zip_code":10013,"lat":40.7191,"lon":-74.0019,"description":null,"rating":null,"photos":[{"image_url":"/system/images/382/medium/image.jpg?1403881817"}]},{"id":399,"name":"2 Fresh Juices Smoothies","city":"New York","permit_number":189,"zip_code":10023,"lat":40.7777,"lon":-73.9823,"description":null,"rating":null,"photos":[{"image_url":"/system/images/383/medium/image.jpg?1403881822"}]},{"id":400,"name":"Fruit Juice and Smoothie Cart","city":"New York","permit_number":199,"zip_code":10013,"lat":40.7187,"lon":-74.0015,"description":null,"rating":null,"photos":[{"image_url":"/system/images/384/medium/image.jpg?1403881958"}]},{"id":401,"name":"Fruit Vendor (temporary permit)","city":"New York","permit_number":755,"zip_code":10023,"lat":40.7776,"lon":-73.9822,"description":null,"rating":null,"photos":[{"image_url":"/system/images/385/medium/image.jpg?1403881974"}]},{"id":402,"name":"City Halal Food","city":"New York","permit_number":2769,"zip_code":10023,"lat":40.7785,"lon":-73.9812,"description":null,"rating":null,"photos":[{"image_url":"/system/images/386/medium/image.jpg?1403882182"}]},{"id":403,"name":"Fruit Juice and Smoothie Cart","city":"New York","permit_number":2834,"zip_code":10013,"lat":40.7193,"lon":-74.0019,"description":null,"rating":null,"photos":[{"image_url":"/system/images/387/medium/image.jpg?1403882197"}]},{"id":404,"name":"Roasted Nuts Cart","city":"New York","permit_number":446,"zip_code":10013,"lat":40.7196,"lon":-74.002,"description":null,"rating":null,"photos":[{"image_url":"/system/images/388/medium/image.jpg?1403882322"}]},{"id":405,"name":"Breakfast \u0026 Lunch","city":"New York","permit_number":2162,"zip_code":10023,"lat":40.7794,"lon":-73.9812,"description":null,"rating":null,"photos":[{"image_url":"/system/images/389/medium/image.jpg?1403882365"}]},{"id":406,"name":"Halal and Hot Dog Cart","city":"New York","permit_number":2334,"zip_code":10013,"lat":40.7205,"lon":-74.0036,"description":null,"rating":null,"photos":[{"image_url":"/system/images/390/medium/image.jpg?1403882580"}]},{"id":407,"name":"Roasted Nuts Cart","city":"New York","permit_number":2520,"zip_code":10013,"lat":40.7199,"lon":-74.003,"description":null,"rating":null,"photos":[{"image_url":"/system/images/391/medium/image.jpg?1403882694"}]},{"id":408,"name":"Halal Cart","city":"New York","permit_number":4493,"zip_code":10013,"lat":40.7215,"lon":-74.0044,"description":null,"rating":null,"photos":[{"image_url":"/system/images/392/medium/image.jpg?1403882780"}]},{"id":409,"name":"Breakfast \u0026 Coffee","city":"New York","permit_number":3160,"zip_code":10024,"lat":40.7878,"lon":-73.9754,"description":null,"rating":null,"photos":[{"image_url":"/system/images/393/medium/image.jpg?1403883621"}]},{"id":410,"name":"14th Street Halal","city":"New York","permit_number":2279,"zip_code":10003,"lat":40.7345,"lon":-73.9893,"description":null,"rating":null,"photos":[{"image_url":"/system/images/394/medium/image.jpg?1404134633"}]},{"id":411,"name":"Breakfast Cart","city":"New York","permit_number":1630,"zip_code":10003,"lat":40.7341,"lon":-73.99,"description":null,"rating":null,"photos":[{"image_url":"/system/images/395/medium/image.jpg?1404134704"}]},{"id":412,"name":"Fruit Stand","city":"New York","permit_number":3064,"zip_code":10003,"lat":40.7342,"lon":-73.9899,"description":null,"rating":null,"photos":[{"image_url":"/system/images/396/medium/image.jpg?1404134777"}]},{"id":413,"name":"Breakfast and Lunch Cart","city":"New York","permit_number":3179,"zip_code":10003,"lat":40.7327,"lon":-73.9899,"description":null,"rating":null,"photos":[{"image_url":"/system/images/397/medium/image.jpg?1404134966"}]},{"id":414,"name":"Breakfast Cart","city":"New York","permit_number":4114,"zip_code":10003,"lat":40.7301,"lon":-73.9911,"description":null,"rating":null,"photos":[{"image_url":"/system/images/398/medium/image.jpg?1404135400"}]},{"id":415,"name":"Fruit Stand","city":"New York","permit_number":248,"zip_code":10003,"lat":40.7301,"lon":-73.9913,"description":null,"rating":null,"photos":[{"image_url":"/system/images/399/medium/image.jpg?1404135470"}]},{"id":416,"name":"Omar's Halal","city":"New York","permit_number":1395,"zip_code":10023,"lat":40.7688,"lon":-73.9819,"description":null,"rating":null,"photos":[{"image_url":"/system/images/400/medium/image.jpg?1404135562"}]},{"id":417,"name":"Fresh Juices Organic","city":"New York","permit_number":659,"zip_code":10023,"lat":40.7687,"lon":-73.9818,"description":null,"rating":null,"photos":[{"image_url":"/system/images/401/medium/image.jpg?1404135616"}]},{"id":418,"name":"Fruit Stand","city":"New York","permit_number":3352,"zip_code":10003,"lat":40.7299,"lon":-73.9911,"description":null,"rating":null,"photos":[{"image_url":"/system/images/402/medium/image.jpg?1404135782"}]},{"id":419,"name":"LA Cafe Cart","city":"New York","permit_number":2387,"zip_code":10003,"lat":40.73,"lon":-73.9918,"description":null,"rating":null,"photos":[{"image_url":"/system/images/403/medium/image.jpg?1404135876"}]},{"id":420,"name":"Juice: Mixed Vegetables and Fruits","city":"New York","permit_number":128,"zip_code":10023,"lat":40.7683,"lon":-73.9819,"description":null,"rating":null,"photos":[{"image_url":"/system/images/404/medium/image.jpg?1404136195"}]},{"id":421,"name":"Breakfast \u0026 Coffee Cart","city":"New York","permit_number":1221,"zip_code":10019,"lat":40.7675,"lon":-73.9825,"description":null,"rating":null,"photos":[{"image_url":"/system/images/405/medium/image.jpg?1404136334"}]},{"id":422,"name":"Halal Cart","city":"New York","permit_number":3732,"zip_code":10012,"lat":40.7261,"lon":-73.9944,"description":null,"rating":null,"photos":[{"image_url":"/system/images/406/medium/image.jpg?1404136426"}]},{"id":423,"name":"Breakfast Fresh Daily (temporary)","city":"New York","permit_number":511,"zip_code":10019,"lat":40.7668,"lon":-73.9829,"description":null,"rating":null,"photos":[{"image_url":"/system/images/407/medium/image.jpg?1404136432"}]},{"id":424,"name":"Breakfast Cart","city":"New York","permit_number":1549,"zip_code":10002,"lat":40.7259,"lon":-73.9943,"description":null,"rating":null,"photos":[{"image_url":"/system/images/408/medium/image.jpg?1404136458"}]},{"id":425,"name":"Halal Cart","city":"New York","permit_number":4338,"zip_code":10012,"lat":40.7252,"lon":-73.9951,"description":null,"rating":null,"photos":[{"image_url":"/system/images/409/medium/image.jpg?1404136564"}]},{"id":426,"name":"Fruit Vendor","city":"New York","permit_number":2823,"zip_code":10019,"lat":40.7639,"lon":-73.985,"description":null,"rating":null,"photos":[{"image_url":"/system/images/410/medium/image.jpg?1404136745"}]},{"id":427,"name":"Peddler Coffee Stand","city":"New York","permit_number":517,"zip_code":10012,"lat":40.725,"lon":-73.9957,"description":null,"rating":null,"photos":[{"image_url":"/system/images/411/medium/image.jpg?1404136820"}]},{"id":428,"name":"The Breakfast Club","city":"New York","permit_number":3022,"zip_code":10019,"lat":40.7634,"lon":-73.9851,"description":null,"rating":null,"photos":[{"image_url":"/system/images/412/medium/image.jpg?1404136828"}]},{"id":429,"name":"Halal Food","city":"New York","permit_number":3456,"zip_code":10019,"lat":40.7629,"lon":-73.9854,"description":null,"rating":null,"photos":[{"image_url":"/system/images/413/medium/image.jpg?1404136952"}]},{"id":430,"name":"Casablanca Juice (temporary)","city":"New York","permit_number":78,"zip_code":10019,"lat":40.763,"lon":-73.9857,"description":null,"rating":null,"photos":[{"image_url":"/system/images/414/medium/image.jpg?1404137005"}]},{"id":431,"name":"Coffee \u0026 Breakfast","city":"New York","permit_number":3156,"zip_code":10019,"lat":40.7625,"lon":-73.9862,"description":null,"rating":null,"photos":[{"image_url":"/system/images/415/medium/image.jpg?1404137177"}]},{"id":432,"name":"Gabrielet's Cafe","city":"New York","permit_number":1386,"zip_code":10019,"lat":40.7616,"lon":-73.9867,"description":null,"rating":null,"photos":[{"image_url":"/system/images/416/medium/image.jpg?1404137271"}]},{"id":433,"name":"Breakfast Cart","city":"New York","permit_number":4424,"zip_code":10019,"lat":40.7615,"lon":-73.9863,"description":null,"rating":null,"photos":[{"image_url":"/system/images/417/medium/image.jpg?1404137390"}]},{"id":434,"name":"Halal Food","city":"New York","permit_number":3540,"zip_code":10036,"lat":40.7606,"lon":-73.9872,"description":null,"rating":null,"photos":[{"image_url":"/system/images/418/medium/image.jpg?1404137535"}]},{"id":435,"name":"Breakfast Dino's Grill","city":"New York","permit_number":4276,"zip_code":10036,"lat":40.7605,"lon":-73.9873,"description":null,"rating":null,"photos":[{"image_url":"/system/images/419/medium/image.jpg?1404137593"}]},{"id":436,"name":"Breakfast Cart","city":"New York","permit_number":3445,"zip_code":10012,"lat":40.7226,"lon":-73.9978,"description":null,"rating":null,"photos":[{"image_url":"/system/images/420/medium/image.jpg?1404137675"}]},{"id":437,"name":"K \u0026 M Halal Food (temporary)","city":"New York","permit_number":608,"zip_code":10036,"lat":40.7602,"lon":-73.9874,"description":null,"rating":null,"photos":[{"image_url":"/system/images/421/medium/image.jpg?1404137737"}]},{"id":438,"name":"Breakfast Cart","city":"New York","permit_number":2266,"zip_code":10012,"lat":40.723,"lon":-73.9986,"description":null,"rating":null,"photos":[{"image_url":"/system/images/422/medium/image.jpg?1404137888"}]},{"id":439,"name":"Fruit Shakes, Smoothies \u0026 Milk Shake (temporary)","city":"New York","permit_number":471,"zip_code":10036,"lat":40.759,"lon":-73.9883,"description":null,"rating":null,"photos":[{"image_url":"/system/images/423/medium/image.jpg?1404137893"}]},{"id":440,"name":"Hot Dogs \u0026 Pretzels","city":"New York","permit_number":3894,"zip_code":10036,"lat":40.7586,"lon":-73.9889,"description":null,"rating":null,"photos":[{"image_url":"/system/images/424/medium/image.jpg?1404137994"}]},{"id":441,"name":"Halal Cart","city":"New York","permit_number":2032,"zip_code":10012,"lat":40.7224,"lon":-73.9969,"description":null,"rating":null,"photos":[{"image_url":"/system/images/425/medium/image.jpg?1404138106"}]},{"id":442,"name":"Fresh Fruit Vendor","city":"New York","permit_number":3093,"zip_code":10019,"lat":40.7578,"lon":-73.9893,"description":null,"rating":null,"photos":[{"image_url":"/system/images/426/medium/image.jpg?1404138111"}]},{"id":443,"name":"Breakfast","city":"New York","permit_number":2127,"zip_code":10036,"lat":40.7576,"lon":-73.9898,"description":null,"rating":null,"photos":[{"image_url":"/system/images/427/medium/image.jpg?1404138168"}]},{"id":444,"name":"Times Halal Food","city":"New York","permit_number":2740,"zip_code":10018,"lat":40.756,"lon":-73.9907,"description":null,"rating":null,"photos":[{"image_url":"/system/images/428/medium/image.jpg?1404138389"}]},{"id":445,"name":"Breakfast \u0026 Eggs Sandwiches","city":"New York","permit_number":4168,"zip_code":10018,"lat":40.7559,"lon":-73.9904,"description":null,"rating":null,"photos":[{"image_url":"/system/images/429/medium/image.jpg?1404138439"}]},{"id":446,"name":"The Coffee Place","city":"New York","permit_number":3724,"zip_code":10018,"lat":40.7559,"lon":-73.9903,"description":null,"rating":null,"photos":[{"image_url":"/system/images/430/medium/image.jpg?1404138497"}]},{"id":447,"name":"Fruit Vendor","city":"New York","permit_number":3993,"zip_code":10018,"lat":40.7559,"lon":-73.9903,"description":null,"rating":null,"photos":[{"image_url":"/system/images/431/medium/image.jpg?1404138536"}]},{"id":448,"name":"Health \u0026 Fruit Shakes (temporary)","city":"New York","permit_number":441,"zip_code":10018,"lat":40.7559,"lon":-73.9902,"description":null,"rating":null,"photos":[{"image_url":"/system/images/432/medium/image.jpg?1404138581"}]},{"id":449,"name":"Breakfast \u0026 Hot Dogs","city":"New York","permit_number":2093,"zip_code":10018,"lat":40.7557,"lon":-73.9911,"description":null,"rating":null,"photos":[{"image_url":"/system/images/433/medium/image.jpg?1404138781"}]},{"id":450,"name":"Marwa Ali Babab Halal \u0026 Healthy Food","city":"New York","permit_number":2260,"zip_code":10018,"lat":40.7542,"lon":-73.9923,"description":null,"rating":null,"photos":[{"image_url":"/system/images/434/medium/image.jpg?1404139009"}]},{"id":451,"name":"Breakfast \u0026 Coffee","city":"New York","permit_number":3212,"zip_code":10018,"lat":40.7542,"lon":-73.9922,"description":null,"rating":null,"photos":[{"image_url":"/system/images/435/medium/image.jpg?1404139068"}]},{"id":452,"name":"Roasted Nuts Cart","city":"New York","permit_number":3534,"zip_code":10013,"lat":40.7185,"lon":-74.0007,"description":null,"rating":null,"photos":[{"image_url":"/system/images/436/medium/image.jpg?1404139153"}]},{"id":453,"name":"Vegetable Stand","city":"New York","permit_number":1333,"zip_code":10013,"lat":40.718,"lon":-74.0001,"description":null,"rating":null,"photos":[{"image_url":"/system/images/437/medium/image.jpg?1404139367"}]},{"id":454,"name":"Halal Food","city":"New York","permit_number":3667,"zip_code":10001,"lat":40.7524,"lon":-73.994,"description":null,"rating":null,"photos":[{"image_url":"/system/images/438/medium/image.jpg?1404139420"}]},{"id":455,"name":"Breakfast Cart","city":"New York","permit_number":3338,"zip_code":10001,"lat":40.7517,"lon":-73.9937,"description":null,"rating":null,"photos":[{"image_url":"/system/images/439/medium/image.jpg?1404139553"}]},{"id":456,"name":"Fruit \u0026 Power Shakes (temporary)","city":"New York","permit_number":615,"zip_code":10001,"lat":40.7515,"lon":-73.9936,"description":null,"rating":null,"photos":[{"image_url":"/system/images/440/medium/image.jpg?1404139612"}]},{"id":457,"name":"Fruit Stand","city":"New York","permit_number":3870,"zip_code":10013,"lat":40.7179,"lon":-74.0002,"description":null,"rating":null,"photos":[{"image_url":"/system/images/441/medium/image.jpg?1404139648"}]},{"id":458,"name":"Dumpling and Roll Cart","city":"New York","permit_number":1925,"zip_code":10013,"lat":40.7175,"lon":-74.0002,"description":null,"rating":null,"photos":[{"image_url":"/system/images/442/medium/image.jpg?1404139656"}]},{"id":459,"name":"Breakfast Cart","city":"New York","permit_number":1820,"zip_code":10013,"lat":40.7173,"lon":-74.0004,"description":null,"rating":null,"photos":[{"image_url":"/system/images/443/medium/image.jpg?1404139666"}]},{"id":460,"name":"Breakfast \u0026 Coffee Cart","city":"New York","permit_number":3940,"zip_code":10001,"lat":40.7515,"lon":-73.9937,"description":null,"rating":null,"photos":[{"image_url":"/system/images/444/medium/image.jpg?1404139677"}]},{"id":461,"name":"Madison Square Garden Express Halal Food","city":"New York","permit_number":4171,"zip_code":10001,"lat":40.7518,"lon":-73.9937,"description":null,"rating":null,"photos":[{"image_url":"/system/images/445/medium/image.jpg?1404139767"}]},{"id":462,"name":"Halal Food","city":"New York","permit_number":4088,"zip_code":10001,"lat":40.7502,"lon":-73.9942,"description":null,"rating":null,"photos":[{"image_url":"/system/images/446/medium/image.jpg?1404139905"}]},{"id":463,"name":"Breakfast \u0026 Coffee","city":"New York","permit_number":2959,"zip_code":10001,"lat":40.7503,"lon":-73.9946,"description":null,"rating":null,"photos":[{"image_url":"/system/images/447/medium/image.jpg?1404139960"}]},{"id":464,"name":"Coffee \u0026 Breakfast","city":"New York","permit_number":1665,"zip_code":10001,"lat":40.7495,"lon":-73.9953,"description":null,"rating":null,"photos":[{"image_url":"/system/images/448/medium/image.jpg?1404140119"}]},{"id":465,"name":"Coffee Break","city":"New York","permit_number":3778,"zip_code":10001,"lat":40.7472,"lon":-73.9969,"description":null,"rating":null,"photos":[{"image_url":"/system/images/449/medium/image.jpg?1404140334"}]},{"id":466,"name":"Coffee \u0026 Breakfast","city":"New York","permit_number":2747,"zip_code":10001,"lat":40.7461,"lon":-73.998,"description":null,"rating":null,"photos":[{"image_url":"/system/images/450/medium/image.jpg?1404140508"}]},{"id":467,"name":"Fruit Vendor (temporary)","city":"New York","permit_number":254,"zip_code":10011,"lat":40.7455,"lon":-73.9986,"description":null,"rating":null,"photos":[{"image_url":"/system/images/451/medium/image.jpg?1404140618"}]},{"id":468,"name":"Halal Food","city":"New York","permit_number":4031,"zip_code":10011,"lat":40.7457,"lon":-73.9995,"description":null,"rating":null,"photos":[{"image_url":"/system/images/452/medium/image.jpg?1404140705"}]},{"id":469,"name":"Breakfast \u0026 Coffee","city":"New York","permit_number":3760,"zip_code":10011,"lat":40.7424,"lon":-74.0009,"description":null,"rating":null,"photos":[{"image_url":"/system/images/453/medium/image.jpg?1404141032"}]},{"id":470,"name":"Breakfast, Lunch, \u0026 Dinner Truck","city":"New York","permit_number":1464,"zip_code":10011,"lat":40.7416,"lon":-74.0009,"description":null,"rating":null,"photos":[{"image_url":"/system/images/454/medium/image.jpg?1404141168"}]},{"id":471,"name":"Halal \u0026 Breakfast","city":"New York","permit_number":3631,"zip_code":10011,"lat":40.7414,"lon":-74.0014,"description":null,"rating":null,"photos":[{"image_url":"/system/images/455/medium/image.jpg?1404141293"}]},{"id":472,"name":"Breakfast \u0026 Gyros","city":"New York","permit_number":3202,"zip_code":10011,"lat":40.7412,"lon":-74.0019,"description":null,"rating":null,"photos":[{"image_url":"/system/images/456/medium/image.jpg?1404141353"}]},{"id":473,"name":"Latino Coffee \u0026 Breakfast","city":"New York","permit_number":3739,"zip_code":10014,"lat":40.7399,"lon":-74.0027,"description":null,"rating":null,"photos":[{"image_url":"/system/images/457/medium/image.jpg?1404141561"}]},{"id":474,"name":"Falafel Burger, Hot Dog, \u0026 Gyros","city":"New York","permit_number":3266,"zip_code":10014,"lat":40.7398,"lon":-74.0026,"description":null,"rating":null,"photos":[{"image_url":"/system/images/458/medium/image.jpg?1404141622"}]},{"id":475,"name":"Fruit Vendor (temporary)","city":"New York","permit_number":40,"zip_code":10011,"lat":40.7396,"lon":-74.0022,"description":null,"rating":null,"photos":[{"image_url":"/system/images/459/medium/image.jpg?1404141716"}]},{"id":476,"name":"Coffee \u0026 Breakfast","city":"New York","permit_number":1732,"zip_code":10011,"lat":40.7384,"lon":-73.9997,"description":null,"rating":null,"photos":[{"image_url":"/system/images/460/medium/image.jpg?1404141927"}]},{"id":477,"name":"Coffee \u0026 Breakfast","city":"New York","permit_number":3440,"zip_code":10011,"lat":40.7405,"lon":-73.9986,"description":null,"rating":null,"photos":[{"image_url":"/system/images/461/medium/image.jpg?1404142162"}]},{"id":478,"name":"Breakfast, Coffee, \u0026 Lunch","city":"New York","permit_number":4203,"zip_code":10011,"lat":40.7411,"lon":-73.9979,"description":null,"rating":null,"photos":[{"image_url":"/system/images/462/medium/image.jpg?1404142413"}]},{"id":479,"name":"Fruit Vendor","city":"New York","permit_number":2913,"zip_code":10011,"lat":40.7442,"lon":-73.9956,"description":null,"rating":null,"photos":[{"image_url":"/system/images/463/medium/image.jpg?1404142809"}]},{"id":480,"name":"Coffee \u0026 Breakfast","city":"New York","permit_number":2023,"zip_code":10011,"lat":40.7445,"lon":-73.9955,"description":null,"rating":null,"photos":[{"image_url":"/system/images/464/medium/image.jpg?1404142942"}]},{"id":481,"name":"Fresh Fruit Juice (temporary)","city":"New York","permit_number":810,"zip_code":10001,"lat":40.7457,"lon":-73.9945,"description":null,"rating":null,"photos":[{"image_url":"/system/images/465/medium/image.jpg?1404143097"}]},{"id":482,"name":"Fruit Vendor","city":"New York","permit_number":3365,"zip_code":10001,"lat":40.7463,"lon":-73.994,"description":null,"rating":null,"photos":[{"image_url":"/system/images/466/medium/image.jpg?1404143150"}]},{"id":483,"name":"Fresh Fruit \u0026 Smoothies (temporary)","city":"New York","permit_number":765,"zip_code":10001,"lat":40.7465,"lon":-73.9937,"description":null,"rating":null,"photos":[{"image_url":"/system/images/467/medium/image.jpg?1404143377"}]},{"id":484,"name":"Charlie's Fashion Beef Hot Dogs","city":"New York","permit_number":1428,"zip_code":10001,"lat":40.7467,"lon":-73.9937,"description":null,"rating":null,"photos":[{"image_url":"/system/images/468/medium/image.jpg?1404143449"}]},{"id":485,"name":"Rafiqi's Fresh Halal","city":"New York","permit_number":1637,"zip_code":10001,"lat":40.7462,"lon":-73.994,"description":null,"rating":null,"photos":[{"image_url":"/system/images/469/medium/image.jpg?1404143515"}]},{"id":486,"name":"Fruit Vendor (temporary)","city":"New York","permit_number":392,"zip_code":10001,"lat":40.7477,"lon":-73.9929,"description":null,"rating":null,"photos":[{"image_url":"/system/images/470/medium/image.jpg?1404143731"}]},{"id":487,"name":"Rafiqi's Fresh Halal (temporary)","city":"New York","permit_number":723,"zip_code":10001,"lat":40.7478,"lon":-73.9932,"description":null,"rating":null,"photos":[{"image_url":"/system/images/471/medium/image.jpg?1404143826"}]},{"id":488,"name":"Coffee, Breakfast, \u0026 Lunch","city":"New York","permit_number":1783,"zip_code":10001,"lat":40.7478,"lon":-73.993,"description":null,"rating":null,"photos":[{"image_url":"/system/images/472/medium/image.jpg?1404143874"}]},{"id":489,"name":"Fruit Vendor (temporary)","city":"New York","permit_number":757,"zip_code":10001,"lat":40.7485,"lon":-73.9926,"description":null,"rating":null,"photos":[{"image_url":"/system/images/473/medium/image.jpg?1404143933"}]},{"id":490,"name":"Hot Dog \u0026 Hot Pretzel","city":"New York","permit_number":3982,"zip_code":10001,"lat":40.7492,"lon":-73.992,"description":null,"rating":null,"photos":[{"image_url":"/system/images/474/medium/image.jpg?1404144072"}]},{"id":491,"name":"Coffee \u0026 Breakfast","city":"New York","permit_number":3248,"zip_code":10001,"lat":40.749,"lon":-73.9922,"description":null,"rating":null,"photos":[{"image_url":"/system/images/475/medium/image.jpg?1404144134"}]},{"id":492,"name":"Breakfast, Lunch, \u0026 Coffee","city":"New York","permit_number":2635,"zip_code":10001,"lat":40.7495,"lon":-73.9922,"description":null,"rating":null,"photos":[{"image_url":"/system/images/476/medium/image.jpg?1404144243"}]},{"id":493,"name":"Halal Marrakkech Moroccan Food","city":"New York","permit_number":4060,"zip_code":10001,"lat":40.7495,"lon":-73.9924,"description":null,"rating":null,"photos":[{"image_url":"/system/images/477/medium/image.jpg?1404144309"}]},{"id":494,"name":"Nuts 4 Nuts","city":"New York","permit_number":1442,"zip_code":10001,"lat":40.7494,"lon":-73.9922,"description":null,"rating":null,"photos":[{"image_url":"/system/images/478/medium/image.jpg?1404144359"}]},{"id":495,"name":"Chestnuts, Hot Dogs, \u0026 Pretzels","city":"New York","permit_number":2110,"zip_code":10001,"lat":40.7507,"lon":-73.992,"description":null,"rating":null,"photos":[{"image_url":"/system/images/479/medium/image.jpg?1404144509"}]},{"id":496,"name":"Halal Food \u0026 Hot Dogs","city":"New York","permit_number":1440,"zip_code":10001,"lat":40.7506,"lon":-73.9924,"description":null,"rating":null,"photos":[{"image_url":"/system/images/480/medium/image.jpg?1404144556"}]},{"id":497,"name":"Hot Dogs \u0026 Pretzels","city":"New York","permit_number":1854,"zip_code":10001,"lat":40.7506,"lon":-73.9912,"description":null,"rating":null,"photos":[{"image_url":"/system/images/481/medium/image.jpg?1404144621"}]},{"id":498,"name":"Breakfast Lunch \u0026 Coffee","city":"New York","permit_number":2512,"zip_code":10001,"lat":40.7506,"lon":-73.9916,"description":null,"rating":null,"photos":[{"image_url":"/system/images/482/medium/image.jpg?1404144803"}]},{"id":499,"name":"King Tut Halal Food","city":"New York","permit_number":2287,"zip_code":10001,"lat":40.7503,"lon":-73.9913,"description":null,"rating":null,"photos":[{"image_url":"/system/images/483/medium/image.jpg?1404144860"}]},{"id":500,"name":"Fruit Vendors (temporary)","city":"New York","permit_number":196,"zip_code":10001,"lat":40.7507,"lon":-73.9919,"description":null,"rating":null,"photos":[{"image_url":"/system/images/484/medium/image.jpg?1404144940"}]},{"id":501,"name":"Halal Brothers: Breakfast \u0026 Coffee","city":"New York","permit_number":3718,"zip_code":10023,"lat":40.7694,"lon":-73.9837,"description":null,"rating":null,"photos":[{"image_url":"/system/images/485/medium/image.jpg?1404223161"}]},{"id":502,"name":"Fruit Vendor (temporary)","city":"New York","permit_number":508,"zip_code":10019,"lat":40.7666,"lon":-73.9868,"description":null,"rating":null,"photos":[{"image_url":"/system/images/486/medium/image.jpg?1404223608"}]},{"id":503,"name":"Breakfast \u0026 Coffee","city":"New York","permit_number":3598,"zip_code":10019,"lat":40.7668,"lon":-73.987,"description":null,"rating":null,"photos":[{"image_url":"/system/images/487/medium/image.jpg?1404223662"}]},{"id":504,"name":"Hot Dog \u0026 Pretzels (temporary)","city":"New York","permit_number":270,"zip_code":10019,"lat":40.7669,"lon":-73.9869,"description":null,"rating":null,"photos":[{"image_url":"/system/images/488/medium/image.jpg?1404223714"}]},{"id":505,"name":"Hot Dogs \u0026 Pretzels","city":"New York","permit_number":3464,"zip_code":10019,"lat":40.7647,"lon":-73.988,"description":null,"rating":null,"photos":[{"image_url":"/system/images/489/medium/image.jpg?1404223978"}]},{"id":506,"name":"Coffee \u0026 Breakfast","city":"New York","permit_number":2141,"zip_code":10019,"lat":40.7634,"lon":-73.9888,"description":null,"rating":null,"photos":[{"image_url":"/system/images/490/medium/image.jpg?1404224198"}]},{"id":507,"name":"Coffee \u0026 Breakfast","city":"New York","permit_number":3067,"zip_code":10036,"lat":40.759,"lon":-73.9923,"description":null,"rating":null,"photos":[{"image_url":"/system/images/491/medium/image.jpg?1404224774"}]},{"id":508,"name":"Fruit Vendor (temporary)","city":"New York","permit_number":826,"zip_code":10036,"lat":40.759,"lon":-73.9923,"description":null,"rating":null,"photos":[{"image_url":"/system/images/492/medium/image.jpg?1404224832"}]},{"id":509,"name":"Mo's Express Coffee \u0026 Tea Bar","city":"New York","permit_number":1971,"zip_code":10036,"lat":40.7584,"lon":-73.9924,"description":null,"rating":null,"photos":[{"image_url":"/system/images/493/medium/image.jpg?1404224991"}]},{"id":510,"name":"Hot Dogs, Pretzels, \u0026 Kebab","city":"New York","permit_number":1538,"zip_code":10036,"lat":40.7583,"lon":-73.9924,"description":null,"rating":null,"photos":[{"image_url":"/system/images/494/medium/image.jpg?1404225055"}]},{"id":511,"name":"Hot Dog \u0026 Hot Pretzel (temporary)","city":"New York","permit_number":571,"zip_code":10001,"lat":40.7526,"lon":-73.9968,"description":null,"rating":null,"photos":[{"image_url":"/system/images/495/medium/image.jpg?1404225810"}]},{"id":512,"name":"Breakfast \u0026 Coffee","city":"New York","permit_number":1616,"zip_code":10001,"lat":40.7522,"lon":-73.9963,"description":null,"rating":null,"photos":[{"image_url":"/system/images/496/medium/image.jpg?1404225864"}]},{"id":513,"name":"Fruit Vendor (temporary)","city":"New York","permit_number":860,"zip_code":10001,"lat":40.7515,"lon":-73.9974,"description":null,"rating":null,"photos":[{"image_url":"/system/images/497/medium/image.jpg?1404226009"}]},{"id":514,"name":"Fruit Vendor (temporary)","city":"New York","permit_number":442,"zip_code":10011,"lat":40.7465,"lon":-74.0011,"description":null,"rating":null,"photos":[{"image_url":"/system/images/498/medium/image.jpg?1404226659"}]},{"id":515,"name":"Breakfast \u0026 Coffee","city":"New York","permit_number":1796,"zip_code":10011,"lat":40.7464,"lon":-74.0011,"description":null,"rating":null,"photos":[{"image_url":"/system/images/499/medium/image.jpg?1404226711"}]},{"id":516,"name":"MRK Halal Food","city":"New York","permit_number":2029,"zip_code":10011,"lat":40.7422,"lon":-74.0044,"description":null,"rating":null,"photos":[{"image_url":"/system/images/500/medium/image.jpg?1404227244"}]},{"id":517,"name":"Coffee \u0026 Breakfast","city":"New York","permit_number":1688,"zip_code":10011,"lat":40.7417,"lon":-74.0048,"description":null,"rating":null,"photos":[{"image_url":"/system/images/501/medium/image.jpg?1404227296"}]},{"id":518,"name":"Hot Dogs \u0026 Pretzels","city":"New York","permit_number":3106,"zip_code":10011,"lat":40.7411,"lon":-74.0052,"description":null,"rating":null,"photos":[{"image_url":"/system/images/502/medium/image.jpg?1404227921"}]},{"id":519,"name":"Hot Dog \u0026 Pretzel (temporary)","city":"New York","permit_number":696,"zip_code":10014,"lat":40.7418,"lon":-74.0074,"description":null,"rating":null,"photos":[{"image_url":"/system/images/503/medium/image.jpg?1404228258"}]},{"id":520,"name":"Breakfast \u0026 Coffee","city":"New York","permit_number":2619,"zip_code":10011,"lat":40.7457,"lon":-74.0057,"description":null,"rating":null,"photos":[{"image_url":"/system/images/504/medium/image.jpg?1404228655"}]},{"id":521,"name":"Hot Dog \u0026 Pretzel (temporary)","city":"New York","permit_number":657,"zip_code":10011,"lat":40.7461,"lon":-74.0054,"description":null,"rating":null,"photos":[{"image_url":"/system/images/505/medium/image.jpg?1404228720"}]},{"id":522,"name":"Hot Dogs, Pretzels, \u0026 Chesnuts","city":"New York","permit_number":3267,"zip_code":10011,"lat":40.7478,"lon":-74.0044,"description":null,"rating":null,"photos":[{"image_url":"/system/images/506/medium/image.jpg?1404228951"}]},{"id":523,"name":"Hot dogs \u0026 Pretzels","city":"New York","permit_number":3742,"zip_code":10001,"lat":40.7497,"lon":-74.003,"description":null,"rating":null,"photos":[{"image_url":"/system/images/507/medium/image.jpg?1404229168"}]},{"id":524,"name":"King Cab Halal Food","city":"New York","permit_number":4180,"zip_code":10001,"lat":40.7508,"lon":-74.0017,"description":null,"rating":null,"photos":[{"image_url":"/system/images/508/medium/image.jpg?1404229341"}]},{"id":525,"name":"Hot Dogs \u0026 Pretzels (temporary)","city":"New York","permit_number":108,"zip_code":10001,"lat":40.7522,"lon":-74.0019,"description":null,"rating":null,"photos":[{"image_url":"/system/images/509/medium/image.jpg?1404229542"}]},{"id":526,"name":"Hot Dog \u0026 Pretzels","city":"New York","permit_number":1178,"zip_code":10001,"lat":40.7545,"lon":-73.9993,"description":null,"rating":null,"photos":[{"image_url":"/system/images/510/medium/image.jpg?1404229914"}]},{"id":527,"name":"Halal Lunch","city":"New York","permit_number":3215,"zip_code":10018,"lat":40.7568,"lon":-73.9981,"description":null,"rating":null,"photos":[{"image_url":"/system/images/511/medium/image.jpg?1404230455"}]},{"id":528,"name":"Good Morning Breakfast \u0026 Lunch","city":"New York","permit_number":3310,"zip_code":10018,"lat":40.7565,"lon":-73.9978,"description":null,"rating":null,"photos":[{"image_url":"/system/images/512/medium/image.jpg?1404230510"}]},{"id":529,"name":"Halal Food","city":"New York","permit_number":1811,"zip_code":10019,"lat":40.7594,"lon":-73.9956,"description":null,"rating":null,"photos":[{"image_url":"/system/images/513/medium/image.jpg?1404230795"}]},{"id":530,"name":"Famous Halal Food Truck","city":"New York","permit_number":4241,"zip_code":10036,"lat":40.7615,"lon":-73.9944,"description":null,"rating":null,"photos":[{"image_url":"/system/images/514/medium/image.jpg?1404231078"}]},{"id":531,"name":"Halal Cart","city":"New York","permit_number":3767,"zip_code":10003,"lat":40.7341,"lon":-73.9884,"description":null,"rating":null,"photos":[{"image_url":"/system/images/515/medium/image.jpg?1404307902"}]},{"id":532,"name":"Fruit Stand","city":"New York","permit_number":3571,"zip_code":10003,"lat":40.7341,"lon":-73.9882,"description":null,"rating":null,"photos":[{"image_url":"/system/images/516/medium/image.jpg?1404307936"}]},{"id":533,"name":"Halal Cart","city":"New York","permit_number":4250,"zip_code":10003,"lat":40.7337,"lon":-73.9876,"description":null,"rating":null,"photos":[{"image_url":"/system/images/517/medium/image.jpg?1404308004"}]},{"id":534,"name":"Fruit Stand","city":"New York","permit_number":361,"zip_code":10003,"lat":40.7338,"lon":-73.9876,"description":null,"rating":null,"photos":[{"image_url":"/system/images/518/medium/image.jpg?1404308035"}]},{"id":535,"name":"Coffee \u0026 Breakfast","city":"New York","permit_number":2545,"zip_code":10024,"lat":40.7888,"lon":-73.9758,"description":null,"rating":null,"photos":[{"image_url":"/system/images/519/medium/image.jpg?1404308114"}]},{"id":536,"name":"Coffee, Breakfast \u0026 News","city":"New York","permit_number":2507,"zip_code":10024,"lat":40.7883,"lon":-73.9764,"description":null,"rating":null,"photos":[{"image_url":"/system/images/520/medium/image.jpg?1404308280"}]},{"id":537,"name":"Fruit Vendor (temporary permit)","city":"New York","permit_number":171,"zip_code":10024,"lat":40.7884,"lon":-73.9763,"description":null,"rating":null,"photos":[{"image_url":"/system/images/521/medium/image.jpg?1404308331"}]},{"id":538,"name":"Daylong Halal","city":"New York","permit_number":1842,"zip_code":10024,"lat":40.7884,"lon":-73.9761,"description":null,"rating":null,"photos":[{"image_url":"/system/images/522/medium/image.jpg?1404308370"}]},{"id":539,"name":"Tasty Burrito","city":"New York","permit_number":3942,"zip_code":10024,"lat":40.7874,"lon":-73.9772,"description":null,"rating":null,"photos":[{"image_url":"/system/images/523/medium/image.jpg?1404308491"}]},{"id":540,"name":"Coffee \u0026 Breakfast","city":"New York","permit_number":2462,"zip_code":10024,"lat":40.7838,"lon":-73.98,"description":null,"rating":null,"photos":[{"image_url":"/system/images/524/medium/image.jpg?1404308941"}]},{"id":541,"name":"Fruit Vendor","city":"New York","permit_number":4296,"zip_code":10024,"lat":40.7837,"lon":-73.9801,"description":null,"rating":null,"photos":[{"image_url":"/system/images/525/medium/image.jpg?1404309020"}]},{"id":542,"name":"Halal Food","city":"New York","permit_number":4063,"zip_code":10024,"lat":40.7835,"lon":-73.9802,"description":null,"rating":null,"photos":[{"image_url":"/system/images/526/medium/image.jpg?1404309141"}]},{"id":543,"name":"Halal Food","city":"New York","permit_number":2869,"zip_code":10023,"lat":40.7796,"lon":-73.9817,"description":null,"rating":null,"photos":[{"image_url":"/system/images/527/medium/image.jpg?1404309507"}]},{"id":544,"name":"Fruit Vendor","city":"New York","permit_number":4245,"zip_code":10023,"lat":40.7789,"lon":-73.9821,"description":null,"rating":null,"photos":[{"image_url":"/system/images/528/medium/image.jpg?1404309606"}]},{"id":545,"name":"Breakfast \u0026 Lunch Halal","city":"New York","permit_number":3125,"zip_code":10023,"lat":40.7789,"lon":-73.9822,"description":null,"rating":null,"photos":[{"image_url":"/system/images/529/medium/image.jpg?1404309665"}]},{"id":546,"name":"Tacos Y Quesadillas Mexico","city":"New York","permit_number":3170,"zip_code":10023,"lat":40.777,"lon":-73.9824,"description":null,"rating":null,"photos":[{"image_url":"/system/images/530/medium/image.jpg?1404309888"}]},{"id":547,"name":"Dumpling and Roll Cart","city":"New York","permit_number":2422,"zip_code":10002,"lat":40.7183,"lon":-73.9946,"description":null,"rating":null,"photos":[{"image_url":"/system/images/531/medium/image.jpg?1404309953"}]},{"id":548,"name":"Fruit And Vegetable Stand","city":"New York","permit_number":1437,"zip_code":10013,"lat":40.7183,"lon":-73.9952,"description":null,"rating":null,"photos":[{"image_url":"/system/images/532/medium/image.jpg?1404310051"}]},{"id":549,"name":"Potluck Truck: Pizza \u0026 More","city":"New York","permit_number":4111,"zip_code":10023,"lat":40.7757,"lon":-73.9825,"description":null,"rating":null,"photos":[{"image_url":"/system/images/533/medium/image.jpg?1404310072"}]},{"id":550,"name":"Fruit Vendor (temporary)","city":"New York","permit_number":509,"zip_code":10023,"lat":40.7757,"lon":-73.9826,"description":null,"rating":null,"photos":[{"image_url":"/system/images/534/medium/image.jpg?1404310124"}]},{"id":551,"name":"Fruit Stand","city":"New York","permit_number":1556,"zip_code":10013,"lat":40.7174,"lon":-73.9956,"description":null,"rating":null,"photos":[{"image_url":"/system/images/535/medium/image.jpg?1404310198"}]},{"id":552,"name":"Coffee \u0026 Breakfast ","city":"New York","permit_number":2391,"zip_code":10023,"lat":40.7752,"lon":-73.982,"description":null,"rating":null,"photos":[{"image_url":"/system/images/536/medium/image.jpg?1404310224"}]},{"id":553,"name":"Mama's Homemade Kitchen","city":"New York","permit_number":2025,"zip_code":10036,"lat":40.7751,"lon":-73.9822,"description":null,"rating":null,"photos":[{"image_url":"/system/images/537/medium/image.jpg?1404310299"}]},{"id":554,"name":"Breakfast \u0026 Lunch","city":"New York","permit_number":4216,"zip_code":10023,"lat":40.7739,"lon":-73.9822,"description":null,"rating":null,"photos":[{"image_url":"/system/images/538/medium/image.jpg?1404310349"}]},{"id":555,"name":"Breakfast \u0026 Lunch ","city":"New York","permit_number":2486,"zip_code":10023,"lat":40.7746,"lon":-73.9824,"description":null,"rating":null,"photos":[{"image_url":"/system/images/539/medium/image.jpg?1404310443"}]},{"id":556,"name":"Mustafa Halal Hot Dog \u0026 Pretzel (temporary)","city":"New York","permit_number":290,"zip_code":10023,"lat":40.7747,"lon":-73.9822,"description":null,"rating":null,"photos":[{"image_url":"/system/images/540/medium/image.jpg?1404310535"}]},{"id":557,"name":"Coffee \u0026 Breakfast","city":"New York","permit_number":2255,"zip_code":10023,"lat":40.774,"lon":-73.9825,"description":null,"rating":null,"photos":[{"image_url":"/system/images/541/medium/image.jpg?1404310699"}]},{"id":558,"name":"Coffee \u0026 Breakfast","city":"New York","permit_number":4189,"zip_code":10023,"lat":40.7721,"lon":-73.9822,"description":null,"rating":null,"photos":[{"image_url":"/system/images/542/medium/image.jpg?1404311039"}]},{"id":559,"name":"Hot Dog, Pretzels \u0026 More","city":"New York","permit_number":3744,"zip_code":10023,"lat":40.7721,"lon":-73.9823,"description":null,"rating":null,"photos":[{"image_url":"/system/images/543/medium/image.jpg?1404311123"}]},{"id":560,"name":"Hot Dog \u0026 Pretzel ","city":"New York","permit_number":1392,"zip_code":10023,"lat":40.7714,"lon":-73.9822,"description":null,"rating":null,"photos":[{"image_url":"/system/images/544/medium/image.jpg?1404311269"}]},{"id":561,"name":"Fruit Vendor","city":"New York","permit_number":4262,"zip_code":10023,"lat":40.7716,"lon":-73.9821,"description":null,"rating":null,"photos":[{"image_url":"/system/images/545/medium/image.jpg?1404311306"}]},{"id":562,"name":"Breakfast \u0026 Lunch \u0026 Gyros","city":"New York","permit_number":1338,"zip_code":10023,"lat":40.7711,"lon":-73.9824,"description":null,"rating":null,"photos":[{"image_url":"/system/images/546/medium/image.jpg?1404311488"}]},{"id":563,"name":"Halal Breakfast \u0026 Lunch","city":"New York","permit_number":1554,"zip_code":10023,"lat":40.7703,"lon":-73.982,"description":null,"rating":null,"photos":[{"image_url":"/system/images/547/medium/image.jpg?1404311576"}]},{"id":564,"name":"Hot Dog \u0026 Pretzel (temporary)","city":"New York","permit_number":568,"zip_code":10023,"lat":40.7705,"lon":-73.982,"description":null,"rating":null,"photos":[{"image_url":"/system/images/548/medium/image.jpg?1404311645"}]},{"id":565,"name":"Wall St. Lunch (61st Street)","city":"New York","permit_number":4420,"zip_code":10023,"lat":40.7696,"lon":-73.982,"description":null,"rating":null,"photos":[{"image_url":"/system/images/549/medium/image.jpg?1404311731"}]},{"id":566,"name":"Halal Breakfast \u0026 Lunch","city":"New York","permit_number":1529,"zip_code":10023,"lat":40.7699,"lon":-73.982,"description":null,"rating":null,"photos":[{"image_url":"/system/images/550/medium/image.jpg?1404311814"}]},{"id":567,"name":"Hot Dog \u0026 Pretzel","city":"New York","permit_number":3533,"zip_code":10023,"lat":40.7686,"lon":-73.9815,"description":null,"rating":null,"photos":[{"image_url":"/system/images/551/medium/image.jpg?1404312046"}]},{"id":568,"name":"Halal Food (temporary)","city":"New York","permit_number":506,"zip_code":10023,"lat":40.7686,"lon":-73.9816,"description":null,"rating":null,"photos":[{"image_url":"/system/images/552/medium/image.jpg?1404312105"}]},{"id":569,"name":"Hot Dog \u0026 Pretzel","city":"New York","permit_number":1582,"zip_code":10023,"lat":40.7685,"lon":-73.9813,"description":null,"rating":null,"photos":[{"image_url":"/system/images/553/medium/image.jpg?1404312234"}]},{"id":570,"name":"Yogo Express (temporary)","city":"New York","permit_number":478,"zip_code":10019,"lat":40.7683,"lon":-73.9813,"description":null,"rating":null,"photos":[{"image_url":"/system/images/554/medium/image.jpg?1404312359"}]},{"id":571,"name":"Crepes \u0026 Waffles","city":"New York","permit_number":88,"zip_code":10019,"lat":40.768,"lon":-73.9813,"description":null,"rating":null,"photos":[{"image_url":"/system/images/555/medium/image.jpg?1404312421"}]},{"id":572,"name":"Kosher Hot Dog \u0026 Pretzels (temporary)","city":"New York","permit_number":47,"zip_code":10019,"lat":40.7677,"lon":-73.9819,"description":null,"rating":null,"photos":[{"image_url":"/system/images/556/medium/image.jpg?1404312687"}]},{"id":573,"name":"Rabat","city":"New York","permit_number":4336,"zip_code":10019,"lat":40.7666,"lon":-73.982,"description":null,"rating":null,"photos":[{"image_url":"/system/images/557/medium/image.jpg?1404312753"}]},{"id":574,"name":"Fruit Shakes (temporary)","city":"New York","permit_number":780,"zip_code":10019,"lat":40.766,"lon":-73.9818,"description":null,"rating":null,"photos":[{"image_url":"/system/images/558/medium/image.jpg?1404312809"}]},{"id":575,"name":"Good Morning Coffee \u0026 Breakfast","city":"New York","permit_number":2408,"zip_code":10019,"lat":40.766,"lon":-73.9818,"description":null,"rating":null,"photos":[{"image_url":"/system/images/559/medium/image.jpg?1404312868"}]},{"id":576,"name":"Coffee \u0026 Breakfast","city":"New York","permit_number":2216,"zip_code":10019,"lat":40.7654,"lon":-73.9823,"description":null,"rating":null,"photos":[{"image_url":"/system/images/560/medium/image.jpg?1404312967"}]},{"id":577,"name":"100% Natural Smoothies","city":"New York","permit_number":3678,"zip_code":10019,"lat":40.7653,"lon":-73.9819,"description":null,"rating":null,"photos":[{"image_url":"/system/images/561/medium/image.jpg?1404313009"}]},{"id":578,"name":"Ziad Halal Breakfast \u0026 Lunch","city":"New York","permit_number":2715,"zip_code":10019,"lat":40.7653,"lon":-73.9821,"description":null,"rating":null,"photos":[{"image_url":"/system/images/562/medium/image.jpg?1404313118"}]},{"id":579,"name":"Cinnamon Snail","city":"New York","permit_number":3969,"zip_code":10024,"lat":40.7898,"lon":-73.9766,"description":"Delicious vegan food.","rating":0.0,"photos":[{"image_url":"/system/images/563/medium/image.jpg?1404313491"}]},{"id":580,"name":"Fresh Juice \u0026 Smoothies (temporary)","city":"New York","permit_number":351,"zip_code":10019,"lat":40.7652,"lon":-73.9822,"description":null,"rating":null,"photos":[{"image_url":"/system/images/564/medium/image.jpg?1404313559"}]},{"id":581,"name":"Hot Dog \u0026 Pretzel","city":"New York","permit_number":1383,"zip_code":10019,"lat":40.7642,"lon":-73.9826,"description":null,"rating":null,"photos":[{"image_url":"/system/images/565/medium/image.jpg?1404313704"}]},{"id":582,"name":"Coffee \u0026 Breakfast (temporary)","city":"New York","permit_number":622,"zip_code":10019,"lat":40.7638,"lon":-73.9822,"description":null,"rating":null,"photos":[{"image_url":"/system/images/566/medium/image.jpg?1404313885"}]},{"id":583,"name":"Coffee \u0026 Breakfast","city":"New York","permit_number":4105,"zip_code":10019,"lat":40.7633,"lon":-73.9829,"description":null,"rating":null,"photos":[{"image_url":"/system/images/567/medium/image.jpg?1404314091"}]},{"id":584,"name":"Hot Dogs \u0026 Pretzels","city":"New York","permit_number":4249,"zip_code":10019,"lat":40.7633,"lon":-73.9829,"description":null,"rating":null,"photos":[{"image_url":"/system/images/568/medium/image.jpg?1404314147"}]},{"id":585,"name":"Fruits Shake","city":"New York","permit_number":1216,"zip_code":10019,"lat":40.7633,"lon":-73.9827,"description":null,"rating":null,"photos":[{"image_url":"/system/images/569/medium/image.jpg?1404314184"}]},{"id":586,"name":"Tacos Y Quesadillas","city":"New York","permit_number":3451,"zip_code":10019,"lat":40.7633,"lon":-73.9829,"description":null,"rating":null,"photos":[{"image_url":"/system/images/570/medium/image.jpg?1404314255"}]},{"id":587,"name":"Fruit Vendor (temporary)","city":"New York","permit_number":409,"zip_code":10019,"lat":40.7616,"lon":-73.9839,"description":null,"rating":null,"photos":[{"image_url":"/system/images/571/medium/image.jpg?1404314624"}]},{"id":588,"name":"Breakfast \u0026 Coffee","city":"New York","permit_number":1411,"zip_code":10019,"lat":40.7618,"lon":-73.984,"description":null,"rating":null,"photos":[{"image_url":"/system/images/572/medium/image.jpg?1404314680"}]},{"id":589,"name":"Hot dog, pretzels, \u0026 Gyros","city":"New York","permit_number":3613,"zip_code":10019,"lat":40.7601,"lon":-73.9846,"description":null,"rating":null,"photos":[{"image_url":"/system/images/573/medium/image.jpg?1404314916"}]},{"id":590,"name":"Hot Dogs, Pretzels, \u0026 Gyros (temporary)","city":"New York","permit_number":618,"zip_code":10019,"lat":40.7601,"lon":-73.9847,"description":null,"rating":null,"photos":[{"image_url":"/system/images/574/medium/image.jpg?1404315025"}]},{"id":591,"name":"Breakfast \u0026 Coffee","city":"New York","permit_number":1728,"zip_code":10036,"lat":40.7603,"lon":-73.9852,"description":null,"rating":null,"photos":[{"image_url":"/system/images/575/medium/image.jpg?1404315103"}]},{"id":592,"name":"Dino's Coffee Shop","city":"New York","permit_number":2094,"zip_code":10036,"lat":40.7596,"lon":-73.9855,"description":null,"rating":null,"photos":[{"image_url":"/system/images/576/medium/image.jpg?1404315204"}]},{"id":593,"name":"Hot Dogs \u0026 Pretzels","city":"New York","permit_number":4482,"zip_code":10036,"lat":40.7589,"lon":-73.9853,"description":null,"rating":null,"photos":[{"image_url":"/system/images/577/medium/image.jpg?1404315391"}]},{"id":594,"name":"Hot Dogs \u0026 Pretzels","city":"New York","permit_number":2522,"zip_code":10036,"lat":40.7578,"lon":-73.9854,"description":null,"rating":null,"photos":[{"image_url":"/system/images/578/medium/image.jpg?1404315578"}]},{"id":595,"name":"Nuts 4 Nuts","city":"New York","permit_number":1930,"zip_code":10036,"lat":40.7577,"lon":-73.9853,"description":null,"rating":null,"photos":[{"image_url":"/system/images/579/medium/image.jpg?1404315631"}]},{"id":596,"name":"Hot Dogs \u0026 Pretzels","city":"New York","permit_number":3601,"zip_code":10036,"lat":40.7573,"lon":-73.9857,"description":null,"rating":null,"photos":[{"image_url":"/system/images/580/medium/image.jpg?1404315828"}]},{"id":597,"name":"Nuts 4 Nuts","city":"New York","permit_number":3029,"zip_code":10036,"lat":40.7571,"lon":-73.9854,"description":null,"rating":null,"photos":[{"image_url":"/system/images/581/medium/image.jpg?1404315880"}]},{"id":598,"name":"Gyros Pretzels \u0026 Hot Dogs","city":"New York","permit_number":3697,"zip_code":10036,"lat":40.7571,"lon":-73.9854,"description":null,"rating":null,"photos":[{"image_url":"/system/images/582/medium/image.jpg?1404315953"}]},{"id":599,"name":"Halal Food","city":"New York","permit_number":2157,"zip_code":10036,"lat":40.7565,"lon":-73.9863,"description":null,"rating":null,"photos":[{"image_url":"/system/images/583/medium/image.jpg?1404316410"}]},{"id":600,"name":"Fruit Vendor (temporary)","city":"New York","permit_number":774,"zip_code":10036,"lat":40.7553,"lon":-73.9868,"description":null,"rating":null,"photos":[{"image_url":"/system/images/584/medium/image.jpg?1404316758"}]},{"id":601,"name":"Breakfast \u0026 Lunch","city":"New York","permit_number":2600,"zip_code":10036,"lat":40.7552,"lon":-73.9866,"description":null,"rating":null,"photos":[{"image_url":"/system/images/585/medium/image.jpg?1404316815"}]},{"id":602,"name":"Halal Truck","city":"New York","permit_number":2660,"zip_code":10018,"lat":40.7541,"lon":-73.9866,"description":null,"rating":null,"photos":[{"image_url":"/system/images/586/medium/image.jpg?1404317505"}]},{"id":603,"name":"Halal Food (temporary)","city":"New York","permit_number":585,"zip_code":10018,"lat":40.7544,"lon":-73.9875,"description":null,"rating":null,"photos":[{"image_url":"/system/images/587/medium/image.jpg?1404317598"}]},{"id":604,"name":"El Manahry Fresh Juice (temporary)","city":"New York","permit_number":698,"zip_code":10018,"lat":40.7541,"lon":-73.9874,"description":null,"rating":null,"photos":[{"image_url":"/system/images/588/medium/image.jpg?1404317687"}]},{"id":605,"name":"Halal Food","city":"New York","permit_number":4380,"zip_code":10018,"lat":40.754,"lon":-73.9875,"description":null,"rating":null,"photos":[{"image_url":"/system/images/589/medium/image.jpg?1404317736"}]},{"id":606,"name":"Fruit Vendor (temporary)","city":"New York","permit_number":403,"zip_code":10018,"lat":40.7539,"lon":-73.9875,"description":null,"rating":null,"photos":[{"image_url":"/system/images/590/medium/image.jpg?1404317810"}]},{"id":607,"name":"Halal","city":"New York","permit_number":4366,"zip_code":10018,"lat":40.7539,"lon":-73.9871,"description":null,"rating":null,"photos":[{"image_url":"/system/images/591/medium/image.jpg?1404317861"}]},{"id":608,"name":"Halal Falafel","city":"New York","permit_number":1624,"zip_code":10018,"lat":40.7535,"lon":-73.987,"description":null,"rating":null,"photos":[{"image_url":"/system/images/592/medium/image.jpg?1404317906"}]},{"id":609,"name":"Mister Softee Truck","city":"New York","permit_number":3169,"zip_code":10018,"lat":40.7538,"lon":-73.9872,"description":null,"rating":null,"photos":[{"image_url":"/system/images/593/medium/image.jpg?1404318022"}]},{"id":610,"name":"Fruit Vendor (temporary)","city":"New York","permit_number":770,"zip_code":10018,"lat":40.7527,"lon":-73.9873,"description":null,"rating":null,"photos":[{"image_url":"/system/images/594/medium/image.jpg?1404318151"}]},{"id":611,"name":"Green Radish Vegan \u0026 Organic","city":"New York","permit_number":3632,"zip_code":10018,"lat":40.7527,"lon":-73.9869,"description":null,"rating":null,"photos":[{"image_url":"/system/images/595/medium/image.jpg?1404318213"}]},{"id":612,"name":"Halal Food","city":"New York","permit_number":2307,"zip_code":10018,"lat":40.7523,"lon":-73.9875,"description":null,"rating":null,"photos":[{"image_url":"/system/images/596/medium/image.jpg?1404318403"}]},{"id":613,"name":"Gorilla Cheese","city":"New York","permit_number":3180,"zip_code":10018,"lat":40.7518,"lon":-73.9875,"description":null,"rating":null,"photos":[{"image_url":"/system/images/597/medium/image.jpg?1404318473"}]},{"id":614,"name":"Hot Dogs \u0026 Pretzels","city":"New York","permit_number":3677,"zip_code":10018,"lat":40.7512,"lon":-73.9874,"description":null,"rating":null,"photos":[{"image_url":"/system/images/598/medium/image.jpg?1404318538"}]},{"id":615,"name":"Juices \u0026 Smoothies","city":"New York","permit_number":73,"zip_code":10018,"lat":40.7515,"lon":-73.9876,"description":null,"rating":null,"photos":[{"image_url":"/system/images/599/medium/image.jpg?1404318588"}]},{"id":616,"name":"Halal Food Truck","city":"New York","permit_number":2960,"zip_code":10018,"lat":40.7513,"lon":-73.9873,"description":null,"rating":null,"photos":[{"image_url":"/system/images/600/medium/image.jpg?1404318635"}]},{"id":617,"name":"Nuts 4 Nuts","city":"New York","permit_number":3880,"zip_code":10018,"lat":40.7514,"lon":-73.9878,"description":null,"rating":null,"photos":[{"image_url":"/system/images/601/medium/image.jpg?1404318696"}]},{"id":618,"name":"Pretzels Hot Dogs \u0026 Kebab","city":"New York","permit_number":4425,"zip_code":10018,"lat":40.7509,"lon":-73.9878,"description":null,"rating":null,"photos":[{"image_url":"/system/images/602/medium/image.jpg?1404318795"}]},{"id":619,"name":"Halal \u0026 Vegetarian Food","city":"New York","permit_number":2763,"zip_code":10018,"lat":40.7508,"lon":-73.9879,"description":null,"rating":null,"photos":[{"image_url":"/system/images/603/medium/image.jpg?1404318845"}]},{"id":620,"name":"Halal \u0026 Hot Dogs","city":"New York","permit_number":3509,"zip_code":10001,"lat":40.7504,"lon":-73.9874,"description":null,"rating":null,"photos":[{"image_url":"/system/images/604/medium/image.jpg?1404318941"}]},{"id":621,"name":"Hot Dogs \u0026 Pretzels","city":"New York","permit_number":3968,"zip_code":10018,"lat":40.7509,"lon":-73.9878,"description":null,"rating":null,"photos":[{"image_url":"/system/images/605/medium/image.jpg?1404319004"}]},{"id":622,"name":"Fruit n' Juice (temporary)","city":"New York","permit_number":631,"zip_code":10018,"lat":40.7508,"lon":-73.9878,"description":null,"rating":null,"photos":[{"image_url":"/system/images/606/medium/image.jpg?1404319053"}]},{"id":623,"name":"Halal Food","city":"New York","permit_number":4266,"zip_code":10024,"lat":40.789,"lon":-73.9761,"description":null,"rating":null,"photos":[{"image_url":"/system/images/607/medium/image.jpg?1404320851"}]},{"id":626,"name":"Halal Cart","city":"New York","permit_number":1552,"zip_code":10014,"lat":40.7406,"lon":-74.005,"description":null,"rating":null,"photos":[{"image_url":"/system/images/610/medium/IMG_0160.JPG?1404393776"}]},{"id":627,"name":"Fruit Juice and Smoothie Cart","city":"New York","permit_number":814,"zip_code":10011,"lat":40.7396,"lon":-74.0023,"description":null,"rating":null,"photos":[{"image_url":"/system/images/611/medium/IMG_0158.JPG?1404394064"}]},{"id":629,"name":"Halal Cart","city":"New York","permit_number":292,"zip_code":10024,"lat":40.79,"lon":-73.977,"description":"Super delicious Halal food.","rating":0.0,"photos":[{"image_url":"/system/images/613/medium/IMG_0165.JPG?1404394674"},{"image_url":"/system/images/default.png"},{"image_url":"/system/images/default.png"},{"image_url":"/system/images/default.png"},{"image_url":"/system/images/default.png"},{"image_url":"/system/images/default.png"},{"image_url":"/system/images/default.png"},{"image_url":"/system/images/default.png"},{"image_url":"/system/images/default.png"},{"image_url":"/system/images/default.png"}]},{"id":630,"name":"Breakfast Cart","city":"New York","permit_number":1920,"zip_code":10014,"lat":40.7288,"lon":-74.007,"description":null,"rating":null,"photos":[{"image_url":"/system/images/614/medium/IMG_0167.JPG?1404394773"}]},{"id":631,"name":"Fruit Juice and Smoothie Cart","city":"New York","permit_number":596,"zip_code":10014,"lat":40.7288,"lon":-74.0072,"description":null,"rating":null,"photos":[{"image_url":"/system/images/615/medium/IMG_0170.JPG?1404394937"}]},{"id":632,"name":"Breakfast Cart","city":"New York","permit_number":1666,"zip_code":10014,"lat":40.729,"lon":-74.0074,"description":null,"rating":null,"photos":[{"image_url":"/system/images/616/medium/IMG_0171.JPG?1404395171"}]},{"id":633,"name":"Halal Cart","city":"New York","permit_number":2667,"zip_code":10014,"lat":40.7284,"lon":-74.0071,"description":null,"rating":null,"photos":[{"image_url":"/system/images/617/medium/IMG_0176.JPG?1404395975"}]},{"id":634,"name":"Breakfast Cart","city":"New York","permit_number":2272,"zip_code":10014,"lat":40.7282,"lon":-74.0072,"description":null,"rating":null,"photos":[{"image_url":"/system/images/618/medium/IMG_0178.JPG?1404396228"}]},{"id":635,"name":"Breakfast \u0026 Lunch Cart","city":"New York","permit_number":3305,"zip_code":10014,"lat":40.7278,"lon":-74.006,"description":null,"rating":null,"photos":[{"image_url":"/system/images/619/medium/IMG_0182.JPG?1404396815"}]},{"id":636,"name":"Rafiqi's Halal Cart","city":"New York","permit_number":2501,"zip_code":10013,"lat":40.7272,"lon":-74.0073,"description":null,"rating":null,"photos":[{"image_url":"/system/images/620/medium/IMG_0185.JPG?1404397550"}]},{"id":637,"name":"Fruit Juice and Smoothie Cart","city":"New York","permit_number":2604,"zip_code":10014,"lat":40.7274,"lon":-74.0067,"description":null,"rating":null,"photos":[{"image_url":"/system/images/621/medium/IMG_0188.JPG?1404398059"}]},{"id":638,"name":"Breakfast Cart","city":"New York","permit_number":1419,"zip_code":10013,"lat":40.7268,"lon":-74.0073,"description":null,"rating":null,"photos":[{"image_url":"/system/images/622/medium/IMG_0192.JPG?1404398564"}]},{"id":639,"name":"Halal Cart","city":"New York","permit_number":3670,"zip_code":10013,"lat":40.721,"lon":-74.01,"description":null,"rating":null,"photos":[{"image_url":"/system/images/623/medium/IMG_0194.JPG?1404398727"}]},{"id":640,"name":"Sandwich \u0026 Lunch Cart","city":"New York","permit_number":1918,"zip_code":10013,"lat":40.7209,"lon":-74.01,"description":null,"rating":null,"photos":[{"image_url":"/system/images/624/medium/IMG_0195.JPG?1404398867"}]},{"id":641,"name":"Halal Cart","city":"New York","permit_number":3831,"zip_code":10013,"lat":40.7209,"lon":-74.0103,"description":null,"rating":null,"photos":[{"image_url":"/system/images/625/medium/IMG_0197.JPG?1404398984"}]},{"id":642,"name":"Fruit Juice and Smoothie Cart","city":"New York","permit_number":91,"zip_code":10013,"lat":40.7207,"lon":-74.0107,"description":null,"rating":null,"photos":[{"image_url":"/system/images/626/medium/IMG_0200.JPG?1404399123"}]},{"id":643,"name":"Fruit Stand","city":"New York","permit_number":643,"zip_code":10013,"lat":40.7202,"lon":-74.0108,"description":null,"rating":null,"photos":[{"image_url":"/system/images/627/medium/IMG_0202.JPG?1404399234"}]},{"id":644,"name":"Hot Dog Cart","city":"New York","permit_number":609,"zip_code":10013,"lat":40.7202,"lon":-74.0105,"description":null,"rating":null,"photos":[{"image_url":"/system/images/628/medium/IMG_0203.JPG?1404399335"}]},{"id":645,"name":"Halal Cart","city":"New York","permit_number":3504,"zip_code":10013,"lat":40.7202,"lon":-74.0105,"description":null,"rating":null,"photos":[{"image_url":"/system/images/629/medium/IMG_0207.JPG?1404399437"}]},{"id":646,"name":"59 Karrots Juice \u0026 Smoothie Bar","city":"New York","permit_number":138,"zip_code":10019,"lat":40.7668,"lon":-73.9792,"description":null,"rating":null,"photos":[{"image_url":"/system/images/630/medium/image.jpg?1404399468"}]},{"id":647,"name":"Hot Dogs \u0026 Pretzels","city":"New York","permit_number":1242,"zip_code":10019,"lat":40.7671,"lon":-73.9789,"description":null,"rating":null,"photos":[{"image_url":"/system/images/631/medium/image.jpg?1404399542"}]},{"id":648,"name":"Coffee \u0026 Breakfast","city":"New York","permit_number":1459,"zip_code":10019,"lat":40.7657,"lon":-73.98,"description":null,"rating":null,"photos":[{"image_url":"/system/images/632/medium/image.jpg?1404399882"}]},{"id":649,"name":"Fruit Vendor","city":"New York","permit_number":3868,"zip_code":10019,"lat":40.7653,"lon":-73.9802,"description":null,"rating":null,"photos":[{"image_url":"/system/images/633/medium/image.jpg?1404399970"}]},{"id":650,"name":"Hot Dog \u0026 Pretzel","city":"New York","permit_number":1174,"zip_code":10019,"lat":40.7655,"lon":-73.98,"description":null,"rating":null,"photos":[{"image_url":"/system/images/634/medium/image.jpg?1404400062"}]},{"id":651,"name":"Icee Cart","city":"New York","permit_number":156,"zip_code":10007,"lat":40.716,"lon":-74.0129,"description":null,"rating":null,"photos":[{"image_url":"/system/images/635/medium/IMG_0212.JPG?1404400103"}]},{"id":652,"name":"Hot Dogs \u0026 Pretzels (temporary)","city":"New York","permit_number":383,"zip_code":10019,"lat":40.7648,"lon":-73.9805,"description":null,"rating":null,"photos":[{"image_url":"/system/images/636/medium/image.jpg?1404400180"}]},{"id":653,"name":"Coffee \u0026 Breakfast","city":"New York","permit_number":1827,"zip_code":10019,"lat":40.7649,"lon":-73.9807,"description":null,"rating":null,"photos":[{"image_url":"/system/images/637/medium/image.jpg?1404400239"}]},{"id":654,"name":"Hot Dog \u0026 Pretzels (temporary)","city":"New York","permit_number":151,"zip_code":10019,"lat":40.7646,"lon":-73.9808,"description":null,"rating":null,"photos":[{"image_url":"/system/images/638/medium/image.jpg?1404400352"}]},{"id":655,"name":"Coffee \u0026 Breakfast","city":"New York","permit_number":1558,"zip_code":10019,"lat":40.7631,"lon":-73.9823,"description":null,"rating":null,"photos":[{"image_url":"/system/images/639/medium/image.jpg?1404400526"}]},{"id":656,"name":"The Halal Guys","city":"New York","permit_number":1398,"zip_code":10019,"lat":40.7633,"lon":-73.9828,"description":null,"rating":null,"photos":[{"image_url":"/system/images/640/medium/image.jpg?1404400628"}]},{"id":657,"name":"Taste of New York","city":"New York","permit_number":3611,"zip_code":10019,"lat":40.7625,"lon":-73.9825,"description":null,"rating":null,"photos":[{"image_url":"/system/images/641/medium/image.jpg?1404400759"}]},{"id":658,"name":"YOGO Frozen Yogurt Truck","city":"New York","permit_number":3227,"zip_code":10007,"lat":40.7158,"lon":-74.0112,"description":null,"rating":null,"photos":[{"image_url":"/system/images/642/medium/IMG_0214.JPG?1404400834"}]},{"id":659,"name":"Fresh Coffee \u0026 Breakfast","city":"New York","permit_number":1257,"zip_code":10019,"lat":40.7622,"lon":-73.9825,"description":null,"rating":null,"photos":[{"image_url":"/system/images/643/medium/image.jpg?1404400853"}]},{"id":660,"name":"Famous Halal Food","city":"New York","permit_number":2937,"zip_code":10019,"lat":40.7625,"lon":-73.9823,"description":null,"rating":null,"photos":[{"image_url":"/system/images/644/medium/image.jpg?1404400931"}]},{"id":661,"name":"Halal Cart","city":"New York","permit_number":3725,"zip_code":10007,"lat":40.7149,"lon":-74.0115,"description":null,"rating":null,"photos":[{"image_url":"/system/images/645/medium/IMG_0216.JPG?1404401027"}]},{"id":662,"name":"Fruit Vendor (temporary)","city":"New York","permit_number":396,"zip_code":10019,"lat":40.7617,"lon":-73.9826,"description":null,"rating":null,"photos":[{"image_url":"/system/images/646/medium/image.jpg?1404401057"}]},{"id":663,"name":"Halal Food","city":"New York","permit_number":2998,"zip_code":10019,"lat":40.7618,"lon":-73.9825,"description":null,"rating":null,"photos":[{"image_url":"/system/images/647/medium/image.jpg?1404401104"}]},{"id":664,"name":"Hot Dog Cart","city":"New York","permit_number":3735,"zip_code":10007,"lat":40.7149,"lon":-74.0116,"description":null,"rating":null,"photos":[{"image_url":"/system/images/648/medium/IMG_0218.JPG?1404401290"}]},{"id":665,"name":"Hot Dog \u0026 Pretzels","city":"New York","permit_number":3590,"zip_code":10019,"lat":40.7613,"lon":-73.9829,"description":null,"rating":null,"photos":[{"image_url":"/system/images/649/medium/image.jpg?1404401297"}]},{"id":666,"name":"Breakfast \u0026 Coffee","city":"New York","permit_number":2439,"zip_code":10019,"lat":40.7608,"lon":-73.9834,"description":null,"rating":null,"photos":[{"image_url":"/system/images/650/medium/image.jpg?1404401352"}]},{"id":667,"name":"Fresh Columbian Coffee","city":"New York","permit_number":3618,"zip_code":10019,"lat":40.7606,"lon":-73.9835,"description":null,"rating":null,"photos":[{"image_url":"/system/images/651/medium/image.jpg?1404401428"}]},{"id":668,"name":"Fouda Halal Food","city":"New York","permit_number":3318,"zip_code":10019,"lat":40.7604,"lon":-73.9833,"description":null,"rating":null,"photos":[{"image_url":"/system/images/652/medium/image.jpg?1404401482"}]},{"id":669,"name":"Fruit Juice and Smoothie Cart","city":"New York","permit_number":2481,"zip_code":10007,"lat":40.714,"lon":-74.0115,"description":null,"rating":null,"photos":[{"image_url":"/system/images/653/medium/IMG_0219.JPG?1404401514"}]},{"id":670,"name":"Halal, Lunch, \u0026 Coffee Cart","city":"New York","permit_number":4206,"zip_code":10007,"lat":40.7143,"lon":-74.0113,"description":null,"rating":null,"photos":[{"image_url":"/system/images/654/medium/IMG_0222.JPG?1404401616"}]},{"id":671,"name":"Halal Food","city":"New York","permit_number":2385,"zip_code":10036,"lat":40.7599,"lon":-73.9844,"description":null,"rating":null,"photos":[{"image_url":"/system/images/655/medium/image.jpg?1404401632"}]},{"id":672,"name":"Halal \u0026 Lunch Cart","city":"New York","permit_number":1301,"zip_code":10007,"lat":40.7151,"lon":-74.0114,"description":null,"rating":null,"photos":[{"image_url":"/system/images/656/medium/IMG_0224.JPG?1404401781"}]},{"id":673,"name":"Coffee \u0026 Breakfast","city":"New York","permit_number":1580,"zip_code":10036,"lat":40.7591,"lon":-73.9849,"description":null,"rating":null,"photos":[{"image_url":"/system/images/657/medium/image.jpg?1404401789"}]},{"id":674,"name":"Halal \u0026 Lunch Cart","city":"New York","permit_number":3261,"zip_code":10007,"lat":40.715,"lon":-74.0117,"description":null,"rating":null,"photos":[{"image_url":"/system/images/658/medium/IMG_0226.JPG?1404401994"}]},{"id":675,"name":"Hot Dogs \u0026 Pretzels","city":"New York","permit_number":3477,"zip_code":10036,"lat":40.7585,"lon":-73.9847,"description":null,"rating":null,"photos":[{"image_url":"/system/images/659/medium/image.jpg?1404402048"}]},{"id":676,"name":"Fruit Juice and Smoothie Cart","city":"New York","permit_number":637,"zip_code":10007,"lat":40.7151,"lon":-74.0121,"description":null,"rating":null,"photos":[{"image_url":"/system/images/660/medium/IMG_0230.JPG?1404402072"}]},{"id":677,"name":"Coffee \u0026 Breakfast","city":"New York","permit_number":1840,"zip_code":10036,"lat":40.7586,"lon":-73.9848,"description":null,"rating":null,"photos":[{"image_url":"/system/images/661/medium/image.jpg?1404402100"}]},{"id":678,"name":"Adel's Halal Food","city":"New York","permit_number":3163,"zip_code":10007,"lat":40.7152,"lon":-74.0127,"description":null,"rating":null,"photos":[{"image_url":"/system/images/662/medium/IMG_0234.JPG?1404402165"}]},{"id":679,"name":"Hot Dog \u0026 Pretzels","city":"New York","permit_number":4024,"zip_code":10036,"lat":40.7585,"lon":-73.9841,"description":null,"rating":null,"photos":[{"image_url":"/system/images/663/medium/image.jpg?1404402204"}]},{"id":680,"name":"Alexandria Juice","city":"New York","permit_number":678,"zip_code":10036,"lat":40.7585,"lon":-73.9844,"description":null,"rating":null,"photos":[{"image_url":"/system/images/664/medium/image.jpg?1404402255"}]},{"id":681,"name":"Hot Dog Cart","city":"New York","permit_number":813,"zip_code":10007,"lat":40.7153,"lon":-74.013,"description":null,"rating":null,"photos":[{"image_url":"/system/images/default.png"}]},{"id":682,"name":"Hot Dog \u0026 Pretzel","city":"New York","permit_number":2226,"zip_code":10036,"lat":40.7581,"lon":-73.9856,"description":null,"rating":null,"photos":[{"image_url":"/system/images/666/medium/image.jpg?1404402471"}]},{"id":683,"name":"Nuts 4 Nuts","city":"New York","permit_number":2368,"zip_code":10036,"lat":40.7579,"lon":-73.9856,"description":null,"rating":null,"photos":[{"image_url":"/system/images/667/medium/image.jpg?1404402518"}]},{"id":684,"name":"Angelo's Hot Dogs \u0026 Pretzels","city":"New York","permit_number":4159,"zip_code":10036,"lat":40.7573,"lon":-73.986,"description":null,"rating":null,"photos":[{"image_url":"/system/images/668/medium/image.jpg?1404402629"}]},{"id":685,"name":"Breakfast \u0026 Coffee","city":"New York","permit_number":2313,"zip_code":10036,"lat":40.7566,"lon":-73.9864,"description":null,"rating":null,"photos":[{"image_url":"/system/images/669/medium/image.jpg?1404402829"}]},{"id":686,"name":"Coffee \u0026 Breakfast","city":"New York","permit_number":2643,"zip_code":10036,"lat":40.7567,"lon":-73.9862,"description":null,"rating":null,"photos":[{"image_url":"/system/images/670/medium/image.jpg?1404402892"}]},{"id":687,"name":"Hot Dogs \u0026 Pretzels","city":"New York","permit_number":3213,"zip_code":10036,"lat":40.7567,"lon":-73.9864,"description":null,"rating":null,"photos":[{"image_url":"/system/images/671/medium/image.jpg?1404402949"}]},{"id":688,"name":"Hot Dogs \u0026 Pretzels (temporary)","city":"New York","permit_number":859,"zip_code":10018,"lat":40.7554,"lon":-73.9876,"description":null,"rating":null,"photos":[{"image_url":"/system/images/672/medium/image.jpg?1404403239"}]},{"id":689,"name":"Nuts 4 Nuts","city":"New York","permit_number":1510,"zip_code":10036,"lat":40.7555,"lon":-73.987,"description":null,"rating":null,"photos":[{"image_url":"/system/images/673/medium/image.jpg?1404403294"}]},{"id":690,"name":"Fruit Vendor (temporary)","city":"New York","permit_number":170,"zip_code":10036,"lat":40.7551,"lon":-73.9874,"description":null,"rating":null,"photos":[{"image_url":"/system/images/674/medium/image.jpg?1404403418"}]},{"id":691,"name":"Breakfast Cart","city":"New York","permit_number":3187,"zip_code":10014,"lat":40.7285,"lon":-74.0052,"description":null,"rating":null,"photos":[{"image_url":"/system/images/675/medium/IMG_0243.JPG?1404403443"}]},{"id":692,"name":"Halal Food","city":"New York","permit_number":3233,"zip_code":10036,"lat":40.7551,"lon":-73.9872,"description":null,"rating":null,"photos":[{"image_url":"/system/images/676/medium/image.jpg?1404403569"}]},{"id":693,"name":"Fruit Vendor (temporary)","city":"New York","permit_number":649,"zip_code":10036,"lat":40.7548,"lon":-73.9874,"description":null,"rating":null,"photos":[{"image_url":"/system/images/677/medium/image.jpg?1404403641"}]},{"id":694,"name":"Coffee \u0026 Breakfast","city":"New York","permit_number":3439,"zip_code":10018,"lat":40.7545,"lon":-73.988,"description":null,"rating":null,"photos":[{"image_url":"/system/images/678/medium/image.jpg?1404403705"}]},{"id":695,"name":"Halal \u0026 Hot Dogs \u0026 Pretzels","city":"New York","permit_number":4298,"zip_code":10018,"lat":40.7545,"lon":-73.9878,"description":null,"rating":null,"photos":[{"image_url":"/system/images/679/medium/image.jpg?1404403766"}]},{"id":696,"name":"Mexican Food Truck","city":"New York","permit_number":2797,"zip_code":10014,"lat":40.7278,"lon":-74.0054,"description":null,"rating":null,"photos":[{"image_url":"/system/images/680/medium/IMG_0247.JPG?1404403777"}]},{"id":697,"name":"Coffee \u0026 Breakfast","city":"New York","permit_number":4395,"zip_code":10018,"lat":40.7544,"lon":-73.9881,"description":null,"rating":null,"photos":[{"image_url":"/system/images/681/medium/image.jpg?1404403834"}]},{"id":698,"name":"Fruit Juice and Smoothie Cart","city":"New York","permit_number":633,"zip_code":10014,"lat":40.7277,"lon":-74.0054,"description":null,"rating":null,"photos":[{"image_url":"/system/images/682/medium/IMG_0248.JPG?1404403878"}]},{"id":699,"name":"Chicken \u0026 Rice","city":"New York","permit_number":1465,"zip_code":10018,"lat":40.7536,"lon":-73.9887,"description":null,"rating":null,"photos":[{"image_url":"/system/images/683/medium/image.jpg?1404403945"}]},{"id":700,"name":"Luckyim Thai Food Truck","city":"New York","permit_number":2624,"zip_code":10014,"lat":40.7277,"lon":-74.0054,"description":null,"rating":null,"photos":[{"image_url":"/system/images/684/medium/IMG_0249.JPG?1404404005"}]},{"id":701,"name":"Fruit Vendor","city":"New York","permit_number":2694,"zip_code":10018,"lat":40.7529,"lon":-73.9893,"description":null,"rating":null,"photos":[{"image_url":"/system/images/685/medium/image.jpg?1404404071"}]},{"id":702,"name":"Hot Dogs \u0026 Pretzels","city":"New York","permit_number":2948,"zip_code":10018,"lat":40.7522,"lon":-73.9896,"description":null,"rating":null,"photos":[{"image_url":"/system/images/686/medium/image.jpg?1404404170"}]},{"id":703,"name":"Halal Food","city":"New York","permit_number":4197,"zip_code":10018,"lat":40.7524,"lon":-73.9894,"description":null,"rating":null,"photos":[{"image_url":"/system/images/687/medium/image.jpg?1404404216"}]},{"id":704,"name":"Coffee \u0026 Breakfast","city":"New York","permit_number":4127,"zip_code":10018,"lat":40.7521,"lon":-73.9895,"description":null,"rating":null,"photos":[{"image_url":"/system/images/688/medium/image.jpg?1404404262"}]},{"id":705,"name":"La Mexicana Mexican Food Truck ","city":"New York","permit_number":3553,"zip_code":10014,"lat":40.7272,"lon":-74.0053,"description":null,"rating":null,"photos":[{"image_url":"/system/images/689/medium/IMG_0255.JPG?1404404279"}]},{"id":706,"name":"Breakfast Cart","city":"New York","permit_number":3766,"zip_code":10013,"lat":40.7271,"lon":-74.0057,"description":null,"rating":null,"photos":[{"image_url":"/system/images/690/medium/IMG_0259.JPG?1404404551"}]},{"id":707,"name":"Breakfast Cart","city":"New York","permit_number":2825,"zip_code":10013,"lat":40.7265,"lon":-74.0056,"description":null,"rating":null,"photos":[{"image_url":"/system/images/691/medium/IMG_0261.JPG?1404404720"}]},{"id":708,"name":"Breakfast Cart","city":"New York","permit_number":4231,"zip_code":10013,"lat":40.7263,"lon":-74.0052,"description":null,"rating":null,"photos":[{"image_url":"/system/images/692/medium/IMG_0264.JPG?1404404861"}]},{"id":709,"name":"Breakfast Cart","city":"New York","permit_number":1921,"zip_code":10013,"lat":40.7229,"lon":-74.0063,"description":null,"rating":null,"photos":[{"image_url":"/system/images/693/medium/IMG_0269.JPG?1404405033"}]},{"id":710,"name":"Halal \u0026 Lunch Cart","city":"New York","permit_number":4164,"zip_code":10013,"lat":40.7229,"lon":-74.0064,"description":null,"rating":null,"photos":[{"image_url":"/system/images/694/medium/IMG_0271.JPG?1404405210"}]},{"id":711,"name":"Hibachi Heaven","city":"New York","permit_number":4479,"zip_code":10167,"lat":40.7546,"lon":-73.9746,"description":null,"rating":null,"photos":[{"image_url":"/system/images/695/medium/image.jpg?1404408061"}]},{"id":712,"name":"DiSo's","city":"New York","permit_number":4046,"zip_code":10017,"lat":40.7546,"lon":-73.9737,"description":null,"rating":null,"photos":[{"image_url":"/system/images/696/medium/image.jpg?1404408201"}]},{"id":713,"name":"Gorilla Cheese","city":"New York","permit_number":4384,"zip_code":10017,"lat":40.755,"lon":-73.9744,"description":null,"rating":null,"photos":[{"image_url":"/system/images/697/medium/image.jpg?1404408374"}]},{"id":714,"name":"Comme i comme a","city":"New York","permit_number":1358,"zip_code":10017,"lat":40.7549,"lon":-73.9743,"description":null,"rating":null,"photos":[{"image_url":"/system/images/698/medium/image.jpg?1404408503"}]},{"id":715,"name":"Latin Kitchen NYC","city":"New York","permit_number":33,"zip_code":10017,"lat":40.7551,"lon":-73.9743,"description":null,"rating":null,"photos":[{"image_url":"/system/images/699/medium/image.jpg?1404408743"}]},{"id":716,"name":"Taco Bite","city":"New York","permit_number":2532,"zip_code":10017,"lat":40.7551,"lon":-73.974,"description":null,"rating":null,"photos":[{"image_url":"/system/images/700/medium/image.jpg?1404408842"}]},{"id":717,"name":"Patty's Tacos","city":"New York","permit_number":3630,"zip_code":10017,"lat":40.7552,"lon":-73.9745,"description":null,"rating":null,"photos":[{"image_url":"/system/images/701/medium/image.jpg?1404408919"}]},{"id":718,"name":"Shorty's On Wheels","city":"New York","permit_number":4173,"zip_code":10017,"lat":40.7553,"lon":-73.9745,"description":null,"rating":null,"photos":[{"image_url":"/system/images/702/medium/image.jpg?1404408984"}]},{"id":719,"name":"Korilla BBQ","city":"New York","permit_number":2570,"zip_code":10010,"lat":40.7554,"lon":-73.9747,"description":null,"rating":null,"photos":[{"image_url":"/system/images/703/medium/image.jpg?1404409112"}]},{"id":720,"name":"Fruit Stand Lexington 46","city":"New York","permit_number":573,"zip_code":10017,"lat":40.7535,"lon":-73.9751,"description":null,"rating":null,"photos":[{"image_url":"/system/images/704/medium/image.jpg?1404409396"}]},{"id":721,"name":"Halal Cart Lexington 41","city":"New York","permit_number":4240,"zip_code":10017,"lat":40.7504,"lon":-73.9765,"description":null,"rating":null,"photos":[{"image_url":"/system/images/705/medium/image.jpg?1404409712"}]},{"id":722,"name":"Smoothie Cart Lexington 41","city":"New York","permit_number":1973,"zip_code":10168,"lat":40.7506,"lon":-73.9761,"description":null,"rating":null,"photos":[{"image_url":"/system/images/706/medium/image.jpg?1404409783"}]},{"id":723,"name":"Prince of Egypt","city":"New York","permit_number":3039,"zip_code":10010,"lat":40.7404,"lon":-73.9836,"description":null,"rating":null,"photos":[{"image_url":"/system/images/707/medium/image.jpg?1404410666"}]},{"id":724,"name":"KFood","city":"New York","permit_number":2899,"zip_code":10010,"lat":40.7405,"lon":-73.9841,"description":null,"rating":null,"photos":[{"image_url":"/system/images/708/medium/image.jpg?1404410756"}]},{"id":725,"name":"KimNa Food Ramyun","city":"New York","permit_number":3720,"zip_code":10010,"lat":40.7406,"lon":-73.9838,"description":null,"rating":null,"photos":[{"image_url":"/system/images/709/medium/image.jpg?1404410845"}]},{"id":726,"name":"YOGO ","city":"New York","permit_number":1891,"zip_code":10003,"lat":40.7363,"lon":-73.989,"description":null,"rating":null,"photos":[{"image_url":"/system/images/710/medium/image.jpg?1404411611"}]},{"id":727,"name":"Fruit Stand","city":"New York","permit_number":3530,"zip_code":10003,"lat":40.7354,"lon":-73.9897,"description":null,"rating":null,"photos":[{"image_url":"/system/images/711/medium/image.jpg?1404411835"}]},{"id":728,"name":"Halal Cart","city":"New York","permit_number":2589,"zip_code":10003,"lat":40.7351,"lon":-73.9898,"description":null,"rating":null,"photos":[{"image_url":"/system/images/712/medium/image.jpg?1404412066"}]},{"id":729,"name":"Hot Dog Cart","city":"New York","permit_number":466,"zip_code":10003,"lat":40.7341,"lon":-73.9897,"description":null,"rating":null,"photos":[{"image_url":"/system/images/713/medium/image.jpg?1404412196"}]},{"id":730,"name":"YOGO ","city":"New York","permit_number":1404,"zip_code":10003,"lat":40.7344,"lon":-73.9897,"description":null,"rating":null,"photos":[{"image_url":"/system/images/714/medium/image.jpg?1404412391"}]},{"id":731,"name":"Halal Cart","city":"New York","permit_number":3944,"zip_code":10003,"lat":40.7347,"lon":-73.9899,"description":null,"rating":5.0,"photos":[{"image_url":"/system/images/715/medium/image.jpg?1404412549"}]},{"id":732,"name":"Fruit Vendor (temporary)","city":"New York","permit_number":809,"zip_code":10024,"lat":40.7901,"lon":-73.9752,"description":null,"rating":0.0,"photos":[{"image_url":"/system/images/723/medium/image.jpg?1404742458"}]},{"id":733,"name":"Fruit Vendor","city":"New York","permit_number":528,"zip_code":10024,"lat":40.7907,"lon":-73.9741,"description":null,"rating":0.0,"photos":[{"image_url":"/system/images/724/medium/image.jpg?1404742567"}]},{"id":734,"name":"Fruit Vendor","city":"New York","permit_number":3636,"zip_code":10025,"lat":40.7935,"lon":-73.9727,"description":null,"rating":0.0,"photos":[{"image_url":"/system/images/725/medium/image.jpg?1404742806"}]},{"id":735,"name":"Fruit Vendor (temporary)","city":"New York","permit_number":161,"zip_code":10025,"lat":40.7935,"lon":-73.9726,"description":null,"rating":0.0,"photos":[{"image_url":"/system/images/726/medium/image.jpg?1404742846"}]},{"id":736,"name":"The Squeeze Cleanses","city":"New York","permit_number":817,"zip_code":10013,"lat":40.7225,"lon":-74.0081,"description":null,"rating":0.0,"photos":[{"image_url":"/system/images/727/medium/image.jpg?1404742864"}]},{"id":737,"name":"Halal House Food Cart","city":"New York","permit_number":2942,"zip_code":10025,"lat":40.7935,"lon":-73.9727,"description":null,"rating":0.0,"photos":[{"image_url":"/system/images/728/medium/image.jpg?1404742887"}]},{"id":738,"name":"Fruit Vendor","city":"New York","permit_number":4325,"zip_code":10025,"lat":40.7946,"lon":-73.9716,"description":null,"rating":0.0,"photos":[{"image_url":"/system/images/729/medium/image.jpg?1404743050"}]},{"id":739,"name":"Breakfast ","city":"New York","permit_number":3075,"zip_code":10025,"lat":40.7948,"lon":-73.9722,"description":null,"rating":0.0,"photos":[{"image_url":"/system/images/730/medium/image.jpg?1404743110"}]},{"id":740,"name":"Basmala Halal Food","city":"New York","permit_number":3828,"zip_code":10025,"lat":40.7947,"lon":-73.9716,"description":null,"rating":0.0,"photos":[{"image_url":"/system/images/731/medium/image.jpg?1404743199"}]},{"id":741,"name":"Breakfast \u0026 Coffee","city":"New York","permit_number":3362,"zip_code":10025,"lat":40.7953,"lon":-73.9716,"description":null,"rating":0.0,"photos":[{"image_url":"/system/images/732/medium/image.jpg?1404743317"}]},{"id":742,"name":"Fruit Vendor","city":"New York","permit_number":2964,"zip_code":10025,"lat":40.7991,"lon":-73.9684,"description":null,"rating":0.0,"photos":[{"image_url":"/system/images/733/medium/image.jpg?1404743735"}]},{"id":743,"name":"Halal Breakfast","city":"New York","permit_number":2908,"zip_code":10024,"lat":40.79,"lon":-73.977,"description":"","rating":5.0,"photos":[{"image_url":"/system/images/734/medium/image.jpg?1404743772"},{"image_url":"/system/images/784/medium/temp_image20140708-12947-1hszaab.jpg?1404840085"},{"image_url":"/system/images/default.png"},{"image_url":"/system/images/786/medium/temp_image20140708-12947-13x2uho.jpg?1404840920"},{"image_url":"/system/images/default.png"},{"image_url":"/system/images/default.png"},{"image_url":"/system/images/default.png"},{"image_url":"/system/images/default.png"},{"image_url":"/system/images/default.png"},{"image_url":"/system/images/default.png"},{"image_url":"/system/images/795/medium/temp_image20140708-16115-76d6hq.jpg?1404848290"},{"image_url":"/system/images/default.png"}]},{"id":744,"name":"Falafel King","city":"New York","permit_number":3788,"zip_code":10025,"lat":40.7997,"lon":-73.9682,"description":null,"rating":0.0,"photos":[{"image_url":"/system/images/735/medium/image.jpg?1404743824"}]},{"id":745,"name":"Halal","city":"New York","permit_number":235,"zip_code":10013,"lat":40.716,"lon":-74.0091,"description":null,"rating":0.0,"photos":[{"image_url":"/system/images/736/medium/image.jpg?1404744122"}]},{"id":746,"name":"Coffee \u0026 Breakfast","city":"New York","permit_number":2562,"zip_code":10025,"lat":40.8038,"lon":-73.9667,"description":null,"rating":0.0,"photos":[{"image_url":"/system/images/737/medium/image.jpg?1404744189"}]},{"id":747,"name":"USA Halal food","city":"New York","permit_number":4182,"zip_code":10025,"lat":40.804,"lon":-73.9668,"description":null,"rating":0.0,"photos":[{"image_url":"/system/images/738/medium/image.jpg?1404744232"}]},{"id":748,"name":"C \u0026 H Halal Cart","city":"New York","permit_number":3852,"zip_code":10007,"lat":40.7156,"lon":-74.009,"description":null,"rating":0.0,"photos":[{"image_url":"/system/images/739/medium/image.jpg?1404744308"}]},{"id":749,"name":"Fried Chicken \u0026 More","city":"New York","permit_number":3007,"zip_code":10007,"lat":40.7138,"lon":-74.0105,"description":null,"rating":0.0,"photos":[{"image_url":"/system/images/740/medium/image.jpg?1404744670"}]},{"id":750,"name":"Tenemos Pan Mexico","city":"New York","permit_number":3244,"zip_code":10025,"lat":40.8048,"lon":-73.9659,"description":null,"rating":0.0,"photos":[{"image_url":"/system/images/741/medium/image.jpg?1404744780"}]},{"id":751,"name":"Fruit Juice and Smoothie Cart","city":"New York","permit_number":153,"zip_code":10007,"lat":40.7128,"lon":-74.0103,"description":null,"rating":0.0,"photos":[{"image_url":"/system/images/742/medium/image.jpg?1404744808"}]},{"id":752,"name":"Shangrila Express Halal","city":"New York","permit_number":2966,"zip_code":10025,"lat":40.8049,"lon":-73.9659,"description":null,"rating":0.0,"photos":[{"image_url":"/system/images/743/medium/image.jpg?1404744830"}]},{"id":753,"name":"Hot Dog Cart","city":"New York","permit_number":2546,"zip_code":10007,"lat":40.713,"lon":-74.01,"description":null,"rating":0.0,"photos":[{"image_url":"/system/images/744/medium/image.jpg?1404744841"}]},{"id":754,"name":"Breakfast Cart","city":"New York","permit_number":2270,"zip_code":10007,"lat":40.713,"lon":-74.0097,"description":null,"rating":0.0,"photos":[{"image_url":"/system/images/745/medium/image.jpg?1404744917"}]},{"id":755,"name":"Nuts For Juices Truck","city":"New York","permit_number":538,"zip_code":10025,"lat":40.8063,"lon":-73.9648,"description":null,"rating":0.0,"photos":[{"image_url":"/system/images/746/medium/image.jpg?1404745003"}]},{"id":756,"name":"Fresh Food (temporary)","city":"New York","permit_number":603,"zip_code":10025,"lat":40.8065,"lon":-73.9647,"description":null,"rating":0.0,"photos":[{"image_url":"/system/images/747/medium/image.jpg?1404745054"}]},{"id":757,"name":"Coffee \u0026 Breakfast","city":"New York","permit_number":3823,"zip_code":10025,"lat":40.8065,"lon":-73.9647,"description":null,"rating":0.0,"photos":[{"image_url":"/system/images/748/medium/image.jpg?1404745093"}]},{"id":758,"name":"Fruit Juice and Smoothie Cart","city":"New York","permit_number":4359,"zip_code":10007,"lat":40.7131,"lon":-74.0111,"description":null,"rating":0.0,"photos":[{"image_url":"/system/images/749/medium/image.jpg?1404745153"}]},{"id":759,"name":"Alan's Falafel \u0026 More","city":"New York","permit_number":4370,"zip_code":10007,"lat":40.7133,"lon":-74.0118,"description":null,"rating":0.0,"photos":[{"image_url":"/system/images/750/medium/image.jpg?1404745204"}]},{"id":760,"name":"Hooda Halal Food","city":"New York","permit_number":4047,"zip_code":10025,"lat":40.8075,"lon":-73.9647,"description":null,"rating":0.0,"photos":[{"image_url":"/system/images/751/medium/image.jpg?1404745222"}]},{"id":761,"name":"Lunch","city":"New York","permit_number":29,"zip_code":10025,"lat":40.8082,"lon":-73.964,"description":null,"rating":0.0,"photos":[{"image_url":"/system/images/752/medium/image.jpg?1404745316"}]},{"id":762,"name":"Chinese Food","city":"New York","permit_number":3824,"zip_code":10027,"lat":40.8089,"lon":-73.9631,"description":null,"rating":0.0,"photos":[{"image_url":"/system/images/753/medium/image.jpg?1404745417"}]},{"id":763,"name":"Traditional Chinese Food","city":"New York","permit_number":4145,"zip_code":10027,"lat":40.8084,"lon":-73.9635,"description":null,"rating":0.0,"photos":[{"image_url":"/system/images/754/medium/image.jpg?1404745477"}]},{"id":764,"name":"Breakfast, Coffee, \u0026 Gyros","city":"New York","permit_number":4335,"zip_code":10027,"lat":40.8084,"lon":-73.9635,"description":null,"rating":0.0,"photos":[{"image_url":"/system/images/755/medium/image.jpg?1404745525"}]},{"id":765,"name":"Halal Cart","city":"New York","permit_number":853,"zip_code":10080,"lat":40.7138,"lon":-74.0141,"description":null,"rating":0.0,"photos":[{"image_url":"/system/images/756/medium/image.jpg?1404745583"}]},{"id":766,"name":"Columbia Cafe \u0026 Grill","city":"Brooklyn","permit_number":6416,"zip_code":11201,"lat":40.6875,"lon":-73.9875,"description":"No pork in my fork!","rating":0.0,"photos":[{"image_url":"/system/images/757/medium/image.jpg?1404745590"},{"image_url":"/system/images/default.png"}]},{"id":767,"name":"Good Morning NYC Breakfast Cart","city":"New York","permit_number":2535,"zip_code":10007,"lat":40.7139,"lon":-74.0138,"description":null,"rating":0.0,"photos":[{"image_url":"/system/images/758/medium/image.jpg?1404745737"}]},{"id":768,"name":"Breakfast \u0026 Coffee","city":"New York","permit_number":3549,"zip_code":10027,"lat":40.8156,"lon":-73.9585,"description":null,"rating":0.0,"photos":[{"image_url":"/system/images/759/medium/image.jpg?1404745759"}]},{"id":769,"name":"Smoothies \u0026 Crepes","city":"New York","permit_number":495,"zip_code":10007,"lat":40.7139,"lon":-74.0137,"description":null,"rating":0.0,"photos":[{"image_url":"/system/images/760/medium/image.jpg?1404745789"}]},{"id":770,"name":"Jan's Express Halal Food","city":"New York","permit_number":4256,"zip_code":10027,"lat":40.8155,"lon":-73.9583,"description":"Right by Columbia. Easy access.","rating":0.0,"photos":[{"image_url":"/system/images/761/medium/image.jpg?1404745816"}]},{"id":771,"name":"Hot Dog Cart","city":"New York","permit_number":210,"zip_code":10006,"lat":40.7098,"lon":-74.0126,"description":null,"rating":0.0,"photos":[{"image_url":"/system/images/762/medium/image.jpg?1404746665"}]},{"id":772,"name":"Fruit Juice and Smoothie Cart","city":"New York","permit_number":831,"zip_code":10006,"lat":40.709,"lon":-74.013,"description":null,"rating":0.0,"photos":[{"image_url":"/system/images/763/medium/image.jpg?1404746695"}]},{"id":773,"name":"Fruit Stand","city":"New York","permit_number":598,"zip_code":10075,"lat":40.7733,"lon":-73.9548,"description":null,"rating":0.0,"photos":[{"image_url":"/system/images/764/medium/image.jpg?1404760134"}]},{"id":774,"name":"Fruit Stand","city":"New York","permit_number":484,"zip_code":10075,"lat":40.772,"lon":-73.9559,"description":null,"rating":0.0,"photos":[{"image_url":"/system/images/765/medium/image.jpg?1404760295"}]},{"id":775,"name":"Halal Cart","city":"New York","permit_number":3758,"zip_code":10065,"lat":40.764,"lon":-73.9617,"description":null,"rating":0.0,"photos":[{"image_url":"/system/images/766/medium/image.jpg?1404761028"}]},{"id":776,"name":"Fruit Stand","city":"New York","permit_number":470,"zip_code":10065,"lat":40.763,"lon":-73.9627,"description":null,"rating":0.0,"photos":[{"image_url":"/system/images/767/medium/image.jpg?1404761178"}]},{"id":777,"name":"Fruit Stand","city":"New York","permit_number":652,"zip_code":10065,"lat":40.7607,"lon":-73.9641,"description":null,"rating":0.0,"photos":[{"image_url":"/system/images/768/medium/image.jpg?1404761394"}]},{"id":778,"name":"Fruit Stand","city":"New York","permit_number":3246,"zip_code":10022,"lat":40.7574,"lon":-73.9668,"description":null,"rating":0.0,"photos":[{"image_url":"/system/images/769/medium/image.jpg?1404761691"}]},{"id":779,"name":"Fruit Stand","city":"New York","permit_number":7474,"zip_code":10022,"lat":40.7557,"lon":-73.9678,"description":null,"rating":0.0,"photos":[{"image_url":"/system/images/770/medium/image.jpg?1404761921"}]},{"id":780,"name":"Fruit Stand","city":"New York","permit_number":262,"zip_code":10022,"lat":40.7545,"lon":-73.969,"description":null,"rating":0.0,"photos":[{"image_url":"/system/images/771/medium/image.jpg?1404762187"}]},{"id":781,"name":"Greek Food","city":"New York","permit_number":1356,"zip_code":10017,"lat":40.7535,"lon":-73.9704,"description":null,"rating":0.0,"photos":[{"image_url":"/system/images/772/medium/image.jpg?1404762415"}]},{"id":782,"name":"Fruit Stand","city":"New York","permit_number":4118,"zip_code":10017,"lat":40.7507,"lon":-73.9715,"description":null,"rating":0.0,"photos":[{"image_url":"/system/images/773/medium/image.jpg?1404762698"}]},{"id":783,"name":"Smoothie Cart","city":"New York","permit_number":107,"zip_code":10017,"lat":40.7511,"lon":-73.9709,"description":null,"rating":0.0,"photos":[{"image_url":"/system/images/774/medium/image.jpg?1404762870"}]},{"id":784,"name":"Mystic Masaala","city":"New York","permit_number":3084,"zip_code":10017,"lat":40.7511,"lon":-73.971,"description":null,"rating":0.0,"photos":[{"image_url":"/system/images/775/medium/image.jpg?1404762981"}]},{"id":785,"name":"Fruit Stand","city":"New York","permit_number":3892,"zip_code":10017,"lat":40.7501,"lon":-73.9723,"description":null,"rating":0.0,"photos":[{"image_url":"/system/images/776/medium/image.jpg?1404763096"}]},{"id":786,"name":"Fruit Stand","city":"New York","permit_number":2868,"zip_code":10017,"lat":40.7496,"lon":-73.9727,"description":null,"rating":0.0,"photos":[{"image_url":"/system/images/777/medium/image.jpg?1404763245"}]}]}