{"success":true,"data":[{"id":281,"name":"Fruit Vendor","city":"New York","permit_number":3385,"zip_code":10024,"lat":40.7853,"lon":-73.9686,"description":null,"photos":[{"image_url":"/system/images/266/medium/image.jpg?1403538721"}]},{"id":280,"name":"Certified Halal Hot Dog \u0026 Pretzel","city":"New York","permit_number":2539,"zip_code":10024,"lat":40.7829,"lon":-73.9672,"description":null,"photos":[{"image_url":"/system/images/265/medium/image.jpg?1403538436"}]},{"id":279,"name":"Breakfast \u0026 More","city":"New York","permit_number":4315,"zip_code":10024,"lat":40.785,"lon":-73.9684,"description":null,"photos":[{"image_url":"/system/images/264/medium/image.jpg?1403538343"}]},{"id":278,"name":"Halal Breakfast \u0026 Lunch","city":"New York","permit_number":2668,"zip_code":10024,"lat":40.7889,"lon":-73.9743,"description":null,"photos":[{"image_url":"/system/images/263/medium/image.jpg?1403538160"}]},{"id":277,"name":"Halal Food","city":"New York","permit_number":3627,"zip_code":10025,"lat":40.7905,"lon":-73.968,"description":null,"photos":[{"image_url":"/system/images/262/medium/image.jpg?1403537860"}]},{"id":276,"name":"Fruit","city":"New York","permit_number":4293,"zip_code":10025,"lat":40.7906,"lon":-73.9674,"description":null,"photos":[{"image_url":"/system/images/261/medium/image.jpg?1403537765"}]},{"id":275,"name":"Coffee \u0026 Gyro","city":"New York","permit_number":3985,"zip_code":10025,"lat":40.7907,"lon":-73.968,"description":null,"photos":[{"image_url":"/system/images/260/medium/image.jpg?1403537570"}]},{"id":274,"name":"fruit cart on lex and 72","city":"New York","permit_number":650,"zip_code":10021,"lat":40.7705,"lon":-73.9621,"description":null,"photos":[{"image_url":"/system/images/259/medium/1403537538769.jpg?1403537557"}]},{"id":273,"name":"Fruit","city":"New York","permit_number":4353,"zip_code":10025,"lat":40.7907,"lon":-73.968,"description":null,"photos":[{"image_url":"/system/images/258/medium/image.jpg?1403537449"}]},{"id":272,"name":"Hot Dogs \u0026 Potato Chips","city":"New York","permit_number":3293,"zip_code":10025,"lat":40.7907,"lon":-73.968,"description":null,"photos":[{"image_url":"/system/images/257/medium/image.jpg?1403537397"}]},{"id":271,"name":"hotdog cart on lex and 69","city":"New York","permit_number":2606,"zip_code":10021,"lat":40.7684,"lon":-73.9637,"description":null,"photos":[{"image_url":"/system/images/256/medium/1403537228283.jpg?1403537244"}]},{"id":270,"name":"Fruit Vendor","city":"New York","permit_number":2297,"zip_code":10025,"lat":40.7951,"lon":-73.9674,"description":null,"photos":[{"image_url":"/system/images/255/medium/image.jpg?1403537196"}]},{"id":269,"name":"coffee cart on lex and 66","city":"New York","permit_number":1964,"zip_code":10035,"lat":40.7666,"lon":-73.9652,"description":null,"photos":[{"image_url":"/system/images/254/medium/1403537019792.jpg?1403537048"}]},{"id":268,"name":"Vegetable Juices \u0026 Fruit Smoothies (Temporary Permit)","city":"New York","permit_number":578,"zip_code":10025,"lat":40.7909,"lon":-73.9668,"description":null,"photos":[{"image_url":"/system/images/253/medium/image.jpg?1403536952"}]},{"id":267,"name":"barhosha hotdog","city":"New York","permit_number":247,"zip_code":10065,"lat":40.7646,"lon":-73.9664,"description":null,"photos":[{"image_url":"/system/images/252/medium/1403536832629.jpg?1403536856"}]},{"id":266,"name":"Fruit (Temporary Permit)","city":"New York","permit_number":747,"zip_code":10025,"lat":40.7909,"lon":-73.9668,"description":null,"photos":[{"image_url":"/system/images/251/medium/image.jpg?1403536850"}]},{"id":265,"name":"Bagels \u0026 Coffee","city":"New York","permit_number":3555,"zip_code":10025,"lat":40.7911,"lon":-73.9668,"description":null,"photos":[{"image_url":"/system/images/250/medium/image.jpg?1403536789"}]},{"id":264,"name":"Sam's Halal Food","city":"New York","permit_number":3645,"zip_code":10025,"lat":40.7934,"lon":-73.9672,"description":null,"photos":[{"image_url":"/system/images/249/medium/image.jpg?1403536697"}]},{"id":263,"name":"coffee cart on lex and 61","city":"New York","permit_number":2144,"zip_code":10065,"lat":40.7635,"lon":-73.9674,"description":null,"photos":[{"image_url":"/system/images/248/medium/1403536677485.jpg?1403536689"}]},{"id":262,"name":"fruit cart on lex and 61","city":"New York","permit_number":11111,"zip_code":10065,"lat":40.7633,"lon":-73.9676,"description":null,"photos":[{"image_url":"/system/images/247/medium/1403536593579.jpg?1403536631"}]},{"id":261,"name":"hotdog cart on lex and 60","city":"New York","permit_number":3945,"zip_code":10022,"lat":40.7629,"lon":-73.9678,"description":null,"photos":[{"image_url":"/system/images/246/medium/1403536439900.jpg?1403536454"}]},{"id":260,"name":"nuts4nuts on lex and 60","city":"New York","permit_number":3909,"zip_code":10022,"lat":40.7629,"lon":-73.9678,"description":null,"photos":[{"image_url":"/system/images/245/medium/1403536386758.jpg?1403536404"}]},{"id":259,"name":"Coffee Cart 15 Union Square E","city":"New York","permit_number":3918,"zip_code":10003,"lat":40.7354,"lon":-73.9898,"description":null,"photos":[{"image_url":"/system/images/244/medium/image.jpg?1403536354"}]},{"id":258,"name":"coffee cart on lex and 60","city":"New York","permit_number":2054,"zip_code":10065,"lat":40.7629,"lon":-73.9677,"description":null,"photos":[{"image_url":"/system/images/243/medium/1403536315419.jpg?1403536328"}]},{"id":257,"name":"hotdog cart on lex and 60","city":"New York","permit_number":2647,"zip_code":10065,"lat":40.7628,"lon":-73.9678,"description":null,"photos":[{"image_url":"/system/images/242/medium/1403536243222.jpg?1403536268"}]},{"id":256,"name":"coffee cart on lex and 60","city":"New York","permit_number":3649,"zip_code":10022,"lat":40.7629,"lon":-73.9678,"description":null,"photos":[{"image_url":"/system/images/241/medium/1403536128215.jpg?1403536143"}]},{"id":255,"name":"Ali baba halal food","city":"New York","permit_number":3467,"zip_code":10022,"lat":40.7618,"lon":-73.9668,"description":null,"photos":[{"image_url":"/system/images/240/medium/1403536059629.jpg?1403536091"}]},{"id":254,"name":"Sam \u0026 Moe Coffee Place","city":"New York","permit_number":1765,"zip_code":10016,"lat":40.7369,"lon":-73.9885,"description":null,"photos":[{"image_url":"/system/images/239/medium/image.jpg?1403535998"}]},{"id":253,"name":"new York lunch box","city":"New York","permit_number":2880,"zip_code":10022,"lat":40.7623,"lon":-73.9684,"description":null,"photos":[{"image_url":"/system/images/238/medium/1403535952310.jpg?1403535968"}]},{"id":252,"name":"Absolute Taste of Hellas Greek","city":"New York","permit_number":4126,"zip_code":10003,"lat":40.7374,"lon":-73.9885,"description":null,"photos":[{"image_url":"/system/images/237/medium/image.jpg?1403535914"}]},{"id":251,"name":"hotdog cart on lex and 58","city":"New York","permit_number":3495,"zip_code":10022,"lat":40.7623,"lon":-73.9683,"description":null,"photos":[{"image_url":"/system/images/236/medium/1403535768515.jpg?1403535792"}]},{"id":250,"name":"Halal Food","city":"New York","permit_number":4087,"zip_code":10025,"lat":40.7954,"lon":-73.9654,"description":null,"photos":[{"image_url":"/system/images/235/medium/image.jpg?1403535766"}]},{"id":249,"name":"coffee cart on lex and 59","city":"New York","permit_number":1484,"zip_code":10022,"lat":40.7623,"lon":-73.9684,"description":null,"photos":[{"image_url":"/system/images/234/medium/1403535710322.jpg?1403535722"}]},{"id":248,"name":"halal cart on lex and 59","city":"New York","permit_number":2774,"zip_code":10022,"lat":40.7623,"lon":-73.9683,"description":null,"photos":[{"image_url":"/system/images/233/medium/1403535632433.jpg?1403535654"}]},{"id":247,"name":"Halal Food Park 21","city":"New York","permit_number":489,"zip_code":10003,"lat":40.7386,"lon":-73.9873,"description":null,"photos":[{"image_url":"/system/images/232/medium/image.jpg?1403535641"}]},{"id":246,"name":"Breakfast Cart Park 28","city":"New York","permit_number":2073,"zip_code":10010,"lat":40.7393,"lon":-73.9869,"description":null,"photos":[{"image_url":"/system/images/231/medium/image.jpg?1403535565"}]},{"id":245,"name":"Abu tariq halal food in lex and 58","city":"New York","permit_number":1669,"zip_code":10022,"lat":40.7618,"lon":-73.9685,"description":null,"photos":[{"image_url":"/system/images/230/medium/1403535440452.jpg?1403535454"}]},{"id":244,"name":"coffee cart on lex and 58","city":"New York","permit_number":3015,"zip_code":10022,"lat":40.7616,"lon":-73.969,"description":null,"photos":[{"image_url":"/system/images/229/medium/1403535326234.jpg?1403535341"}]},{"id":243,"name":"Habibi Halal Food","city":"New York","permit_number":3681,"zip_code":10010,"lat":40.7398,"lon":-73.9859,"description":null,"photos":[{"image_url":"/system/images/228/medium/image.jpg?1403535318"}]},{"id":242,"name":"hotdog cart on lex and 58","city":"New York","permit_number":3221,"zip_code":10022,"lat":40.7616,"lon":-73.969,"description":null,"photos":[{"image_url":"/system/images/227/medium/1403535259105.jpg?1403535300"}]},{"id":241,"name":"nuts4nuts on lex and 56","city":"New York","permit_number":2131,"zip_code":10022,"lat":40.7612,"lon":-73.9691,"description":null,"photos":[{"image_url":"/system/images/226/medium/1403535138970.jpg?1403535160"}]},{"id":240,"name":"Rafiqi's","city":"New York","permit_number":2229,"zip_code":10010,"lat":40.7407,"lon":-73.9857,"description":null,"photos":[{"image_url":"/system/images/225/medium/image.jpg?1403535136"}]},{"id":239,"name":"Fruit Stand Park 24","city":"New York","permit_number":665,"zip_code":10010,"lat":40.7407,"lon":-73.9857,"description":null,"photos":[{"image_url":"/system/images/224/medium/image.jpg?1403535100"}]},{"id":238,"name":"coffee cart on lex and 56","city":"New York","permit_number":3232,"zip_code":10022,"lat":40.7612,"lon":-73.9691,"description":null,"photos":[{"image_url":"/system/images/223/medium/1403535052550.jpg?1403535080"}]},{"id":237,"name":"Coffee Cart 24 Park","city":"New York","permit_number":1682,"zip_code":10010,"lat":40.7408,"lon":-73.9859,"description":null,"photos":[{"image_url":"/system/images/222/medium/image.jpg?1403535018"}]},{"id":236,"name":"coffee cart on lex and 56","city":"New York","permit_number":1847,"zip_code":10022,"lat":40.7603,"lon":-73.9697,"description":null,"photos":[{"image_url":"/system/images/221/medium/1403534939396.jpg?1403534957"}]},{"id":235,"name":"NYC Bagel \u0026 Coffee Company","city":"New York","permit_number":4443,"zip_code":10010,"lat":40.7417,"lon":-73.9857,"description":null,"photos":[{"image_url":"/system/images/220/medium/image.jpg?1403534907"}]},{"id":234,"name":"Mexican food cart on lex and 55","city":"New York","permit_number":3245,"zip_code":10022,"lat":40.7595,"lon":-73.9701,"description":null,"photos":[{"image_url":"/system/images/219/medium/1403534837110.jpg?1403534850"}]},{"id":233,"name":"Coffee Cart 27 Park","city":"New York","permit_number":2745,"zip_code":10016,"lat":40.7428,"lon":-73.9847,"description":null,"photos":[{"image_url":"/system/images/218/medium/image.jpg?1403534742"}]},{"id":232,"name":"juice cart on lex and 52","city":"New York","permit_number":2990,"zip_code":10022,"lat":40.7578,"lon":-73.9713,"description":null,"photos":[{"image_url":"/system/images/217/medium/1403534575673.jpg?1403534592"}]},{"id":231,"name":"Coffee etc.","city":"New York","permit_number":3082,"zip_code":10026,"lat":40.8003,"lon":-73.9591,"description":null,"photos":[{"image_url":"/system/images/216/medium/image.jpg?1403534546"}]},{"id":230,"name":"fruit cart on lex and 52","city":"New York","permit_number":2220,"zip_code":10022,"lat":40.7578,"lon":-73.9712,"description":null,"photos":[{"image_url":"/system/images/215/medium/1403534510697.jpg?1403534525"}]},{"id":229,"name":"coffee cart on lex and 52","city":"New York","permit_number":1618,"zip_code":10022,"lat":40.7578,"lon":-73.9715,"description":null,"photos":[{"image_url":"/system/images/214/medium/1403534447209.jpg?1403534464"}]},{"id":228,"name":"Fruit Stand Park 28","city":"New York","permit_number":3896,"zip_code":10016,"lat":40.7434,"lon":-73.9838,"description":null,"photos":[{"image_url":"/system/images/213/medium/image.jpg?1403534423"}]},{"id":227,"name":"hotdog cart on lex and 52 northeast","city":"New York","permit_number":1384,"zip_code":10022,"lat":40.7578,"lon":-73.9715,"description":null,"photos":[{"image_url":"/system/images/212/medium/1403534398806.jpg?1403534413"}]},{"id":226,"name":"Halal Food Deshi","city":"New York","permit_number":4253,"zip_code":10016,"lat":40.7439,"lon":-73.9836,"description":null,"photos":[{"image_url":"/system/images/211/medium/image.jpg?1403534335"}]},{"id":225,"name":"coffee cart on lex and 52","city":"New York","permit_number":2582,"zip_code":10022,"lat":40.7578,"lon":-73.9715,"description":null,"photos":[{"image_url":"/system/images/210/medium/1403534281610.jpg?1403534298"}]},{"id":224,"name":"Breakfast Cart Park 29","city":"New York","permit_number":1496,"zip_code":10016,"lat":40.7438,"lon":-73.9836,"description":null,"photos":[{"image_url":"/system/images/209/medium/image.jpg?1403534287"}]},{"id":223,"name":"hotdog cart on lex and 52","city":"New York","permit_number":2733,"zip_code":10022,"lat":40.7579,"lon":-73.9715,"description":null,"photos":[{"image_url":"/system/images/208/medium/1403534224009.jpg?1403534244"}]},{"id":222,"name":"fruit cart on lex and 51","city":"New York","permit_number":730,"zip_code":10022,"lat":40.7572,"lon":-73.972,"description":null,"photos":[{"image_url":"/system/images/207/medium/1403534116831.jpg?1403534142"}]},{"id":221,"name":"Breakfast \u0026 Lunch Park 31","city":"New York","permit_number":3605,"zip_code":10016,"lat":40.7448,"lon":-73.9827,"description":null,"photos":[{"image_url":"/system/images/206/medium/image.jpg?1403534053"}]},{"id":220,"name":"coffee cart on lex and 51","city":"New York","permit_number":4321,"zip_code":10022,"lat":40.7572,"lon":-73.9719,"description":null,"photos":[{"image_url":"/system/images/205/medium/1403533983460.jpg?1403534003"}]},{"id":219,"name":"Fruit Stand Park 32","city":"New York","permit_number":2241,"zip_code":10016,"lat":40.7455,"lon":-73.982,"description":null,"photos":[{"image_url":"/system/images/204/medium/image.jpg?1403533956"}]},{"id":218,"name":"Breakfast Cart Park 32","city":"New York","permit_number":2683,"zip_code":10016,"lat":40.7457,"lon":-73.982,"description":null,"photos":[{"image_url":"/system/images/202/medium/image.jpg?1403533896"}]},{"id":217,"name":"Coffee Cart 32 Park","city":"New York","permit_number":2249,"zip_code":10016,"lat":40.7459,"lon":-73.9822,"description":null,"photos":[{"image_url":"/system/images/201/medium/image.jpg?1403533829"}]},{"id":216,"name":"fruit cart on lex and 50","city":"New York","permit_number":2036,"zip_code":10022,"lat":40.7566,"lon":-73.9723,"description":null,"photos":[{"image_url":"/system/images/203/medium/1403533822395.jpg?1403533904"}]},{"id":215,"name":"Rafiqi's","city":"New York","permit_number":3363,"zip_code":10016,"lat":40.7458,"lon":-73.9821,"description":null,"photos":[{"image_url":"/system/images/200/medium/image.jpg?1403533758"}]},{"id":214,"name":"Coffee Cart 32 Park","city":"New York","permit_number":2264,"zip_code":10016,"lat":40.7459,"lon":-73.9822,"description":null,"photos":[{"image_url":"/system/images/199/medium/image.jpg?1403533695"}]},{"id":213,"name":"coffee cart on lex and 50","city":"New York","permit_number":1283,"zip_code":10022,"lat":40.7566,"lon":-73.9725,"description":null,"photos":[{"image_url":"/system/images/198/medium/1403533675458.jpg?1403533686"}]},{"id":212,"name":"Fresh Juices and Smoothies","city":"New York","permit_number":267,"zip_code":10016,"lat":40.7461,"lon":-73.9824,"description":null,"photos":[{"image_url":"/system/images/197/medium/image.jpg?1403533637"}]},{"id":211,"name":"Breakfast Cart Park 33","city":"New York","permit_number":4080,"zip_code":10016,"lat":40.7465,"lon":-73.982,"description":null,"photos":[{"image_url":"/system/images/196/medium/image.jpg?1403533586"}]},{"id":210,"name":"hotdog cart on lex and 49","city":"New York","permit_number":1526,"zip_code":10017,"lat":40.7558,"lon":-73.9729,"description":null,"photos":[{"image_url":"/system/images/195/medium/1403533540021.jpg?1403533553"}]},{"id":209,"name":"Basem","city":"New York","permit_number":2674,"zip_code":10016,"lat":40.7469,"lon":-73.9814,"description":null,"photos":[{"image_url":"/system/images/194/medium/image.jpg?1403533490"}]},{"id":208,"name":"Breakfast Cart Park 34","city":"Manhattan","permit_number":3488,"zip_code":10016,"lat":40.7469,"lon":-73.9815,"description":null,"photos":[{"image_url":"/system/images/193/medium/image.jpg?1403533359"}]},{"id":207,"name":"halal cart on 3rd and 48","city":"New York","permit_number":3167,"zip_code":10017,"lat":40.7547,"lon":-73.9718,"description":null,"photos":[{"image_url":"/system/images/192/medium/1403533232326.jpg?1403533275"}]},{"id":206,"name":"Hot Dog Cart Park 36","city":"New York","permit_number":1822,"zip_code":10016,"lat":40.7484,"lon":-73.9807,"description":null,"photos":[{"image_url":"/system/images/191/medium/image.jpg?1403533195"}]},{"id":205,"name":"coffee cart on 3rd and 48","city":"New York","permit_number":2007,"zip_code":10017,"lat":40.7546,"lon":-73.9718,"description":null,"photos":[{"image_url":"/system/images/190/medium/1403533163820.jpg?1403533181"}]},{"id":204,"name":"Coffee Cart","city":"New York","permit_number":2344,"zip_code":10025,"lat":40.7919,"lon":-73.9651,"description":null,"photos":[{"image_url":"/system/images/189/medium/image.jpg?1403533145"}]},{"id":203,"name":"fruit cart on 3rd and 48","city":"New York","permit_number":4470,"zip_code":10017,"lat":40.7549,"lon":-73.9719,"description":null,"photos":[{"image_url":"/system/images/188/medium/1403533094192.jpg?1403533108"}]},{"id":202,"name":"Coffee Cart 38 Park","city":"New York","permit_number":1687,"zip_code":10016,"lat":40.7494,"lon":-73.9796,"description":null,"photos":[{"image_url":"/system/images/187/medium/image.jpg?1403533042"}]},{"id":201,"name":"coffee cart on 3rd and 49","city":"New York","permit_number":2516,"zip_code":10022,"lat":40.7552,"lon":-73.9714,"description":null,"photos":[{"image_url":"/system/images/186/medium/1403532998932.jpg?1403533013"}]},{"id":200,"name":"Breakfast Cart","city":"New York","permit_number":2024,"zip_code":10016,"lat":40.7504,"lon":-73.9792,"description":null,"photos":[{"image_url":"/system/images/185/medium/image.jpg?1403532931"}]},{"id":199,"name":"rafiqis on 3rd and 59tg","city":"New York","permit_number":1463,"zip_code":10022,"lat":40.7559,"lon":-73.971,"description":null,"photos":[{"image_url":"/system/images/184/medium/1403532898140.jpg?1403532921"}]},{"id":198,"name":"Sabrett Pretzels \u0026 Hot Dogs","city":"New York","permit_number":3372,"zip_code":10025,"lat":40.7899,"lon":-73.9663,"description":null,"photos":[{"image_url":"/system/images/183/medium/image.jpg?1403532901"}]},{"id":197,"name":"coffee cart on 3rd and 50","city":"New York","permit_number":3189,"zip_code":10022,"lat":40.7559,"lon":-73.9706,"description":null,"photos":[{"image_url":"/system/images/182/medium/1403532809258.jpg?1403532824"}]},{"id":196,"name":"Coffee Cart Park 40","city":"New York","permit_number":1654,"zip_code":10168,"lat":40.7509,"lon":-73.9781,"description":null,"photos":[{"image_url":"/system/images/181/medium/image.jpg?1403532773"}]},{"id":195,"name":"coffee cart on 3rd and 52","city":"New York","permit_number":1886,"zip_code":10022,"lat":40.757,"lon":-73.9702,"description":null,"photos":[{"image_url":"/system/images/180/medium/1403532656385.jpg?1403532671"}]},{"id":194,"name":"Fruit Stand Park 40","city":"New York","permit_number":2585,"zip_code":10017,"lat":40.7508,"lon":-73.9783,"description":null,"photos":[{"image_url":"/system/images/179/medium/image.jpg?1403532657"}]},{"id":193,"name":"Herm's Box","city":"New York","permit_number":3194,"zip_code":10024,"lat":40.7879,"lon":-73.9676,"description":null,"photos":[{"image_url":"/system/images/178/medium/image.jpg?1403532654"}]},{"id":192,"name":"Coffee Cart 40 Park","city":"New York","permit_number":3900,"zip_code":10017,"lat":40.7511,"lon":-73.9787,"description":null,"photos":[{"image_url":"/system/images/177/medium/image.jpg?1403532609"}]},{"id":191,"name":"coffee cart on 3rd and 52","city":"New York","permit_number":1801,"zip_code":10022,"lat":40.757,"lon":-73.9698,"description":null,"photos":[{"image_url":"/system/images/176/medium/1403532586107.jpg?1403532602"}]},{"id":190,"name":"fruit cart on 3rd and 52","city":"New York","permit_number":2372,"zip_code":10022,"lat":40.757,"lon":-73.9697,"description":null,"photos":[{"image_url":"/system/images/175/medium/1403532543807.jpg?1403532558"}]},{"id":189,"name":"juice cart on 3rd and 53","city":"New York","permit_number":839,"zip_code":10022,"lat":40.7575,"lon":-73.9694,"description":null,"photos":[{"image_url":"/system/images/174/medium/1403532430089.jpg?1403532444"}]},{"id":188,"name":"coffee cart on 3rd and 53","city":"New York","permit_number":1461,"zip_code":10022,"lat":40.7577,"lon":-73.9695,"description":null,"photos":[{"image_url":"/system/images/173/medium/1403532377675.jpg?1403532405"}]},{"id":187,"name":"coffee cart on 3rd and 54","city":"New York","permit_number":1342,"zip_code":10022,"lat":40.7583,"lon":-73.9694,"description":null,"photos":[{"image_url":"/system/images/172/medium/1403532291022.jpg?1403532306"}]},{"id":186,"name":"halal cart on 3rd and 55","city":"New York","permit_number":1887,"zip_code":10022,"lat":40.7588,"lon":-73.9686,"description":null,"photos":[{"image_url":"/system/images/171/medium/1403532141878.jpg?1403532185"}]},{"id":185,"name":"coffee cart on 3rd and 55","city":"New York","permit_number":1745,"zip_code":10022,"lat":40.759,"lon":-73.9684,"description":null,"photos":[{"image_url":"/system/images/170/medium/1403532085591.jpg?1403532097"}]},{"id":184,"name":"coffee cart on 3rd and 56","city":"New York","permit_number":2050,"zip_code":10022,"lat":40.7592,"lon":-73.9681,"description":null,"photos":[{"image_url":"/system/images/169/medium/1403531968107.jpg?1403531990"}]},{"id":183,"name":"Original Philly Cheese Steak","city":"New York","permit_number":3104,"zip_code":10017,"lat":40.7545,"lon":-73.9755,"description":null,"photos":[{"image_url":"/system/images/168/medium/image.jpg?1403531984"}]},{"id":182,"name":"Pretzels, Hot Dogs, and More!","city":"New York","permit_number":34,"zip_code":10024,"lat":40.782,"lon":-73.972,"description":null,"photos":[{"image_url":"/system/images/167/medium/image.jpg?1403531955"}]},{"id":181,"name":"Coffee Cart 46 Park","city":"New York","permit_number":1227,"zip_code":10167,"lat":40.7546,"lon":-73.9754,"description":null,"photos":[{"image_url":"/system/images/166/medium/image.jpg?1403531933"}]},{"id":180,"name":"Halal Food","city":"New York","permit_number":63,"zip_code":10024,"lat":40.7821,"lon":-73.9721,"description":null,"photos":[{"image_url":"/system/images/165/medium/image.jpg?1403531844"}]},{"id":179,"name":"halal cart on 3rd and 58","city":"New York","permit_number":3178,"zip_code":10155,"lat":40.7609,"lon":-73.9672,"description":null,"photos":[{"image_url":"/system/images/164/medium/1403531760449.jpg?1403531786"}]},{"id":178,"name":"Hanna","city":"New York","permit_number":57,"zip_code":10024,"lat":40.7808,"lon":-73.9728,"description":null,"photos":[{"image_url":"/system/images/163/medium/image.jpg?1403531719"}]},{"id":177,"name":"Rahman's Kwik Meal","city":"New York","permit_number":1778,"zip_code":10017,"lat":40.7559,"lon":-73.9755,"description":null,"photos":[{"image_url":"/system/images/162/medium/image.jpg?1403531714"}]},{"id":176,"name":"coffee cart on 3rd and 58","city":"New York","permit_number":1819,"zip_code":10022,"lat":40.7608,"lon":-73.967,"description":null,"photos":[{"image_url":"/system/images/161/medium/1403531650606.jpg?1403531671"}]},{"id":175,"name":"Main Squeeze: Smoothie \u0026 Juice Bar","city":"New York","permit_number":80,"zip_code":10024,"lat":40.7813,"lon":-73.9724,"description":null,"photos":[{"image_url":"/system/images/160/medium/image.jpg?1403531661"}]},{"id":174,"name":"Ice Cream (Temporary Permit)","city":"New York","permit_number":588,"zip_code":10024,"lat":40.7806,"lon":-73.973,"description":null,"photos":[{"image_url":"/system/images/159/medium/image.jpg?1403531594"}]},{"id":173,"name":"coffee cart on 3rd and 59","city":"New York","permit_number":2630,"zip_code":10022,"lat":40.7619,"lon":-73.9666,"description":null,"photos":[{"image_url":"/system/images/158/medium/1403531507002.jpg?1403531537"}]},{"id":172,"name":"Breakfast \u0026 Lunch","city":"New York","permit_number":1577,"zip_code":10017,"lat":40.7555,"lon":-73.9753,"description":null,"photos":[{"image_url":"/system/images/157/medium/image.jpg?1403531526"}]},{"id":171,"name":"The Roadside Grill","city":"New York","permit_number":26,"zip_code":10024,"lat":40.7809,"lon":-73.9727,"description":null,"photos":[{"image_url":"/system/images/156/medium/image.jpg?1403531465"}]},{"id":170,"name":"TITO BOSS - halal food on 3rd and 59","city":"New York","permit_number":3761,"zip_code":10022,"lat":40.7618,"lon":-73.9667,"description":null,"photos":[{"image_url":"/system/images/155/medium/1403531433646.jpg?1403531452"}]},{"id":168,"name":"Smoothie Cart Park 48","city":"New York","permit_number":3348,"zip_code":10171,"lat":40.7558,"lon":-73.9747,"description":null,"photos":[{"image_url":"/system/images/154/medium/image.jpg?1403531313"}]},{"id":169,"name":"Fruit Stand Park 48","city":"New York","permit_number":3505,"zip_code":10171,"lat":40.7558,"lon":-73.9746,"description":null,"photos":[]},{"id":167,"name":"halal cart on 3rd and 60","city":"New York","permit_number":2478,"zip_code":10065,"lat":40.762,"lon":-73.9664,"description":null,"photos":[{"image_url":"/system/images/153/medium/1403531258767.jpg?1403531278"}]},{"id":166,"name":"NYC Meals on Wheels","city":"New York","permit_number":1471,"zip_code":10024,"lat":40.7807,"lon":-73.9727,"description":null,"photos":[{"image_url":"/system/images/152/medium/image.jpg?1403531253"}]},{"id":165,"name":"coffee cart on 3rd and 69","city":"New York","permit_number":2934,"zip_code":10065,"lat":40.7618,"lon":-73.9666,"description":null,"photos":[{"image_url":"/system/images/151/medium/1403531204626.jpg?1403531221"}]},{"id":164,"name":"The Roadside Grill","city":"New York","permit_number":12,"zip_code":10024,"lat":40.7805,"lon":-73.9731,"description":null,"photos":[{"image_url":"/system/images/150/medium/image.jpg?1403531160"}]},{"id":163,"name":"juice cart on 3rd and 60","city":"New York","permit_number":555,"zip_code":10065,"lat":40.7623,"lon":-73.9658,"description":null,"photos":[{"image_url":"/system/images/149/medium/1403531111071.jpg?1403531138"}]},{"id":162,"name":"Fresh Juice Smoothies","city":"New York","permit_number":44,"zip_code":10024,"lat":40.7804,"lon":-73.9732,"description":null,"photos":[{"image_url":"/system/images/148/medium/image.jpg?1403531119"}]},{"id":161,"name":"Thai Food On Wheels","city":"New York","permit_number":630,"zip_code":10017,"lat":40.7564,"lon":-73.9751,"description":null,"photos":[{"image_url":"/system/images/147/medium/image.jpg?1403531078"}]},{"id":160,"name":"Smoothie Stand Park 48","city":"New York","permit_number":477,"zip_code":10017,"lat":40.7561,"lon":-73.9751,"description":null,"photos":[{"image_url":"/system/images/146/medium/image.jpg?1403531023"}]},{"id":159,"name":"coffee cart on 3rd and 61","city":"New York","permit_number":3861,"zip_code":10065,"lat":40.7627,"lon":-73.9655,"description":null,"photos":[{"image_url":"/system/images/145/medium/1403530976155.jpg?1403531018"}]},{"id":158,"name":"halal cart on 3rd and 62","city":"Manhattan","permit_number":1448,"zip_code":10021,"lat":40.7633,"lon":-73.9652,"description":null,"photos":[{"image_url":"/system/images/144/medium/1403530844032.jpg?1403530897"}]},{"id":157,"name":"Coffee Cart 48 Park","city":"New York","permit_number":1357,"zip_code":10017,"lat":40.7561,"lon":-73.9752,"description":null,"photos":[{"image_url":"/system/images/143/medium/image.jpg?1403530879"}]},{"id":156,"name":"coffee cart on 3rd and 62","city":"Manhattan","permit_number":3800,"zip_code":10021,"lat":40.7633,"lon":-73.9652,"description":null,"photos":[{"image_url":"/system/images/142/medium/1403530768232.jpg?1403530782"}]},{"id":155,"name":"halal cart on 3rd and 64","city":"New York","permit_number":3917,"zip_code":10065,"lat":40.7633,"lon":-73.9651,"description":null,"photos":[{"image_url":"/system/images/141/medium/1403530697637.jpg?1403530713"}]},{"id":154,"name":"Fruit Salad Cart Park 49","city":"New York","permit_number":672,"zip_code":10029,"lat":40.7565,"lon":-73.9747,"description":null,"photos":[{"image_url":"/system/images/140/medium/image.jpg?1403530698"}]},{"id":153,"name":"Halal Food","city":"New York","permit_number":41,"zip_code":10023,"lat":40.7762,"lon":-73.976,"description":null,"photos":[{"image_url":"/system/images/139/medium/image.jpg?1403530682"}]},{"id":151,"name":"coffee cart on 3rd and 64","city":"New York","permit_number":1608,"zip_code":10021,"lat":40.7649,"lon":-73.9641,"description":null,"photos":[{"image_url":"/system/images/137/medium/1403530445168.jpg?1403530466"}]},{"id":150,"name":"fruit cart on 3rd and 65","city":"New York","permit_number":4416,"zip_code":10065,"lat":40.7655,"lon":-73.9637,"description":null,"photos":[{"image_url":"/system/images/136/medium/1403530266080.jpg?1403530281"}]},{"id":149,"name":"fruit cart on 3rd and 66","city":"New York","permit_number":102,"zip_code":10065,"lat":40.7664,"lon":-73.963,"description":null,"photos":[{"image_url":"/system/images/135/medium/1403530148269.jpg?1403530162"}]},{"id":148,"name":"coffee cart on 3rd and 67","city":"New York","permit_number":4144,"zip_code":10065,"lat":40.7666,"lon":-73.9629,"description":null,"photos":[{"image_url":"/system/images/134/medium/1403530083552.jpg?1403530110"}]},{"id":147,"name":"fruit cart on 3rd and 68","city":"New York","permit_number":394,"zip_code":10065,"lat":40.7673,"lon":-73.9624,"description":null,"photos":[{"image_url":"/system/images/133/medium/1403529918969.jpg?1403529969"}]},{"id":146,"name":"coffee cart on 3rd and 68","city":"New York","permit_number":2441,"zip_code":10021,"lat":40.7675,"lon":-73.9623,"description":null,"photos":[{"image_url":"/system/images/132/medium/1403529851439.jpg?1403529869"}]},{"id":145,"name":"coffee cart on 3rd and 70","city":"New York","permit_number":2906,"zip_code":10021,"lat":40.7683,"lon":-73.9616,"description":null,"photos":[{"image_url":"/system/images/131/medium/1403529703066.jpg?1403529717"}]},{"id":144,"name":"halal cart on 3rd and 71 northwest","city":"New York","permit_number":1252,"zip_code":10021,"lat":40.7694,"lon":-73.9612,"description":null,"photos":[{"image_url":"/system/images/130/medium/1403529576596.jpg?1403529599"}]},{"id":143,"name":"fruit cart on 3rd and 72","city":"New York","permit_number":38,"zip_code":10021,"lat":40.7696,"lon":-73.9608,"description":null,"photos":[{"image_url":"/system/images/129/medium/1403529433941.jpg?1403529450"}]},{"id":142,"name":"fruit cart on 3rd and 74","city":"New York","permit_number":2292,"zip_code":10021,"lat":40.771,"lon":-73.9596,"description":null,"photos":[{"image_url":"/system/images/128/medium/1403529278456.jpg?1403529295"}]},{"id":141,"name":"coffee cart on 3rd and 77 southwest","city":"New York","permit_number":1233,"zip_code":10075,"lat":40.7731,"lon":-73.9581,"description":null,"photos":[{"image_url":"/system/images/127/medium/1403529064195.jpg?1403529084"}]},{"id":140,"name":"fruit cart on 3rd and 77","city":"New York","permit_number":3916,"zip_code":10075,"lat":40.7733,"lon":-73.9581,"description":null,"photos":[{"image_url":"/system/images/126/medium/1403528978551.jpg?1403529010"}]},{"id":139,"name":"coffee cart on 3rd and 78","city":"New York","permit_number":2525,"zip_code":10075,"lat":40.7735,"lon":-73.9579,"description":null,"photos":[{"image_url":"/system/images/125/medium/1403528904806.jpg?1403528917"}]},{"id":138,"name":"fruit cart on 3rd and 79 northeast","city":"New York","permit_number":4059,"zip_code":10075,"lat":40.7743,"lon":-73.9573,"description":null,"photos":[{"image_url":"/system/images/124/medium/1403528780586.jpg?1403528801"}]},{"id":137,"name":"fruit cart on 3rd and 82 southeast","city":"New York","permit_number":772,"zip_code":10028,"lat":40.7761,"lon":-73.9559,"description":null,"photos":[{"image_url":"/system/images/123/medium/1403528580342.jpg?1403528597"}]},{"id":136,"name":"NYC Meals On Wheels","city":"New York","permit_number":30,"zip_code":10019,"lat":40.768,"lon":-73.9808,"description":null,"photos":[{"image_url":"/system/images/122/medium/image.jpg?1403528425"}]},{"id":135,"name":"Hassan \u0026 Abuda Halal Cart","city":"New York","permit_number":28,"zip_code":10019,"lat":40.7679,"lon":-73.9806,"description":null,"photos":[{"image_url":"/system/images/121/medium/image.jpg?1403528369"}]},{"id":134,"name":"coffee cart on 3rd and 85","city":"New York","permit_number":339,"zip_code":10028,"lat":40.7782,"lon":-73.9545,"description":null,"photos":[{"image_url":"/system/images/120/medium/1403528337571.jpg?1403528349"}]},{"id":133,"name":"fruit cart on 3rd and 85 south west","city":"New York","permit_number":4247,"zip_code":10028,"lat":40.7782,"lon":-73.9544,"description":null,"photos":[{"image_url":"/system/images/119/medium/1403528281155.jpg?1403528293"}]},{"id":132,"name":"Ice Cream at Columbus Circle","city":"New York","permit_number":6477,"zip_code":10019,"lat":40.7682,"lon":-73.9811,"description":null,"photos":[{"image_url":"/system/images/118/medium/image.jpg?1403528267"}]},{"id":131,"name":"Pretzels at Columbus Circle","city":"New York","permit_number":6490,"zip_code":10019,"lat":40.7678,"lon":-73.9813,"description":null,"photos":[{"image_url":"/system/images/117/medium/image.jpg?1403528209"}]},{"id":130,"name":"coffee cart on 3rd and 85","city":"New York","permit_number":2168,"zip_code":10028,"lat":40.7782,"lon":-73.9544,"description":null,"photos":[{"image_url":"/system/images/116/medium/1403528116465.jpg?1403528142"}]},{"id":129,"name":"fruit cart btw 2nd and 3rd on 86","city":"New York","permit_number":4267,"zip_code":10128,"lat":40.7785,"lon":-73.953,"description":null,"photos":[{"image_url":"/system/images/115/medium/1403527913135.jpg?1403527929"}]},{"id":128,"name":"fruit cart btw 2nd and 3rd on 86","city":"New York","permit_number":0,"zip_code":10128,"lat":40.7787,"lon":-73.9534,"description":null,"photos":[{"image_url":"/system/images/114/medium/1403527815282.jpg?1403527827"}]},{"id":127,"name":"fruit cart btw 2nd and 3rd on 86","city":"New York","permit_number":4218,"zip_code":10128,"lat":40.7786,"lon":-73.9534,"description":null,"photos":[{"image_url":"/system/images/113/medium/1403527626286.jpg?1403527637"}]},{"id":126,"name":"fruit cart on 3rd and 86 northeast","city":"New York","permit_number":761,"zip_code":10128,"lat":40.7788,"lon":-73.9539,"description":null,"photos":[{"image_url":"/system/images/112/medium/1403527522002.jpg?1403527533"}]},{"id":125,"name":"coffee cart on 3rd and 86 northeast","city":"New York","permit_number":2179,"zip_code":10028,"lat":40.7788,"lon":-73.954,"description":null,"photos":[{"image_url":"/system/images/111/medium/1403527441936.jpg?1403527455"}]},{"id":124,"name":"coffee cart on 3rd and 86","city":"New York","permit_number":1294,"zip_code":10028,"lat":40.7788,"lon":-73.9543,"description":null,"photos":[{"image_url":"/system/images/110/medium/1403527331910.jpg?1403527362"}]},{"id":105,"name":"Famous Coffee \u0026 Halal Food","city":"New York","permit_number":3032,"zip_code":10022,"lat":40.7571,"lon":-73.9741,"description":null,"photos":[]},{"id":104,"name":"YOGO","city":"New York","permit_number":482,"zip_code":10022,"lat":40.7583,"lon":-73.9738,"description":null,"photos":[{"image_url":"/system/images/97/medium/image.jpg?1403276173"}]},{"id":103,"name":"Uncle Gussy's Traditional Greek Cuisine","city":"New York","permit_number":2794,"zip_code":10154,"lat":40.7578,"lon":-73.9734,"description":null,"photos":[{"image_url":"/system/images/96/medium/image.jpg?1403275499"}]},{"id":102,"name":"Uncle Gussy's Traditional Greek Treats","city":"New York","permit_number":3976,"zip_code":10154,"lat":40.7578,"lon":-73.9733,"description":null,"photos":[{"image_url":"/system/images/95/medium/image.jpg?1403275418"}]},{"id":101,"name":"Halal Food Park 51","city":"New York","permit_number":3347,"zip_code":10022,"lat":40.7573,"lon":-73.9721,"description":null,"photos":[{"image_url":"/system/images/94/medium/image.jpg?1403275323"}]},{"id":100,"name":"Eggstravaganza","city":"New York","permit_number":4128,"zip_code":10154,"lat":40.7583,"lon":-73.9731,"description":null,"photos":[{"image_url":"/system/images/93/medium/image.jpg?1403275143"}]},{"id":99,"name":"Primos Cafe","city":"New York","permit_number":1862,"zip_code":10029,"lat":40.7584,"lon":-73.9732,"description":null,"photos":[{"image_url":"/system/images/92/medium/image.jpg?1403275065"}]},{"id":98,"name":"Rafiqi's Truck","city":"New York","permit_number":3176,"zip_code":10154,"lat":40.7583,"lon":-73.973,"description":null,"photos":[{"image_url":"/system/images/91/medium/image.jpg?1403274992"}]},{"id":97,"name":"Neopolitan","city":"New York","permit_number":800,"zip_code":10029,"lat":40.7584,"lon":-73.9731,"description":null,"photos":[{"image_url":"/system/images/90/medium/image.jpg?1403274827"}]},{"id":96,"name":"Coffee Cart 53 Park","city":"New York","permit_number":3403,"zip_code":10022,"lat":40.7592,"lon":-73.9727,"description":null,"photos":[{"image_url":"/system/images/89/medium/image.jpg?1403274695"}]},{"id":95,"name":"Good Morning New Yorker Coffe Cart","city":"New York","permit_number":4065,"zip_code":10022,"lat":40.7588,"lon":-73.9721,"description":null,"photos":[{"image_url":"/system/images/88/medium/image.jpg?1403274193"}]},{"id":94,"name":"Fruit Salad","city":"New York","permit_number":3679,"zip_code":10152,"lat":40.7587,"lon":-73.9726,"description":null,"photos":[{"image_url":"/system/images/87/medium/image.jpg?1403274086"}]},{"id":93,"name":"Loly Smoothie","city":"New York","permit_number":521,"zip_code":10022,"lat":40.7602,"lon":-73.9727,"description":null,"photos":[{"image_url":"/system/images/86/medium/image.jpg?1403273894"}]},{"id":92,"name":"100% Halal \u0026 Healthy Food","city":"New York","permit_number":4453,"zip_code":10022,"lat":40.7599,"lon":-73.9726,"description":null,"photos":[{"image_url":"/system/images/85/medium/image.jpg?1403273790"}]},{"id":91,"name":"Park's Coffee and Grill","city":"New York","permit_number":4357,"zip_code":10022,"lat":40.7598,"lon":-73.9727,"description":null,"photos":[{"image_url":"/system/images/84/medium/image.jpg?1403273681"}]},{"id":90,"name":"Coffee Cart 54 Park","city":"New York","permit_number":2676,"zip_code":10022,"lat":40.7597,"lon":-73.9722,"description":null,"photos":[{"image_url":"/system/images/83/medium/image.jpg?1403273553"}]},{"id":89,"name":"Rafi's Halal Food","city":"New York","permit_number":4263,"zip_code":10022,"lat":40.7592,"lon":-73.9717,"description":null,"photos":[{"image_url":"/system/images/82/medium/image.jpg?1403273359"}]},{"id":88,"name":"Chef G Halal \u0026 Healthy","city":"New York","permit_number":2749,"zip_code":10022,"lat":40.7601,"lon":-73.9713,"description":null,"photos":[{"image_url":"/system/images/81/medium/image.jpg?1403273167"}]},{"id":87,"name":"Fruit Stand Park 55","city":"New York","permit_number":3466,"zip_code":10022,"lat":40.7602,"lon":-73.9715,"description":null,"photos":[{"image_url":"/system/images/80/medium/image.jpg?1403272985"}]},{"id":86,"name":"Rafiqi's","city":"New York","permit_number":3409,"zip_code":10029,"lat":40.7617,"lon":-73.9705,"description":null,"photos":[{"image_url":"/system/images/79/medium/image.jpg?1403272779"}]},{"id":85,"name":"Coffee Cart Park 57","city":"New York","permit_number":2951,"zip_code":10022,"lat":40.7615,"lon":-73.9702,"description":null,"photos":[{"image_url":"/system/images/78/medium/image.jpg?1403272633"}]},{"id":84,"name":"Fruit Stand Park 58","city":"New York","permit_number":3120,"zip_code":10022,"lat":40.7632,"lon":-73.9703,"description":null,"photos":[{"image_url":"/system/images/77/medium/image.jpg?1403272425"}]},{"id":83,"name":"The Coffee Place","city":"New York","permit_number":4049,"zip_code":10022,"lat":40.7632,"lon":-73.9701,"description":null,"photos":[{"image_url":"/system/images/76/medium/image.jpg?1403272166"}]},{"id":82,"name":"Fruit Stand Park 59","city":"New York","permit_number":2652,"zip_code":10022,"lat":40.7632,"lon":-73.9701,"description":null,"photos":[{"image_url":"/system/images/75/medium/image.jpg?1403272113"}]},{"id":81,"name":"Coffee Cart 59 Park","city":"New York","permit_number":2723,"zip_code":10065,"lat":40.7627,"lon":-73.9696,"description":null,"photos":[{"image_url":"/system/images/74/medium/image.jpg?1403271931"}]},{"id":80,"name":"Coffee Cart 60 Park","city":"New York","permit_number":3929,"zip_code":10022,"lat":40.7636,"lon":-73.9693,"description":null,"photos":[{"image_url":"/system/images/73/medium/image.jpg?1403271773"}]},{"id":79,"name":"Waseem's Spot","city":"New York","permit_number":3383,"zip_code":10065,"lat":40.7685,"lon":-73.9653,"description":null,"photos":[{"image_url":"/system/images/72/medium/image.jpg?1403271303"}]},{"id":78,"name":"Knish and hot dog cart","city":"New York","permit_number":1772,"zip_code":10021,"lat":40.7685,"lon":-73.966,"description":null,"photos":[{"image_url":"/system/images/71/medium/image.jpg?1403271152"}]},{"id":77,"name":"Wasey's Place","city":"New York","permit_number":3239,"zip_code":10065,"lat":40.7688,"lon":-73.965,"description":null,"photos":[{"image_url":"/system/images/70/medium/image.jpg?1403270934"}]},{"id":76,"name":"Fruit and coffee","city":"New York","permit_number":2690,"zip_code":10128,"lat":40.7799,"lon":-73.9569,"description":null,"photos":[{"image_url":"/system/images/69/medium/image.jpg?1403270351"}]},{"id":74,"name":"Hot dog stand on smith and schermerhorn","city":"Brooklyn","permit_number":1983,"zip_code":11201,"lat":40.6899,"lon":-73.9882,"description":null,"photos":[{"image_url":"/system/images/67/medium/image.jpg?1403194587"}]},{"id":73,"name":"Halal cart on smith and schermerhorn","city":"Brooklyn","permit_number":3846,"zip_code":11201,"lat":40.6899,"lon":-73.9884,"description":null,"photos":[{"image_url":"/system/images/66/medium/image.jpg?1403194378"}]},{"id":71,"name":"Fruit stand","city":"Brooklyn","permit_number":767,"zip_code":11201,"lat":40.6905,"lon":-73.988,"description":null,"photos":[{"image_url":"/system/images/65/medium/image.jpg?1403194150"}]},{"id":70,"name":"Hot Dog Sausage Pretzel","city":"Brooklyn","permit_number":1351,"zip_code":11201,"lat":40.6906,"lon":-73.9883,"description":null,"photos":[{"image_url":"/system/images/64/medium/image.jpg?1403194032"}]},{"id":69,"name":"Hot dog stand","city":"Brooklyn","permit_number":3787,"zip_code":11201,"lat":40.6914,"lon":-73.9874,"description":null,"photos":[{"image_url":"/system/images/63/medium/image.jpg?1403193822"}]},{"id":68,"name":"Pakiza","city":"Brooklyn","permit_number":3127,"zip_code":11201,"lat":40.6913,"lon":-73.9874,"description":null,"photos":[{"image_url":"/system/images/62/medium/image.jpg?1403193696"}]},{"id":67,"name":"Sam's coffee","city":"Brooklyn","permit_number":3936,"zip_code":11201,"lat":40.6935,"lon":-73.9867,"description":null,"photos":[{"image_url":"/system/images/61/medium/image.jpg?1403193330"}]},{"id":66,"name":"Breakfast and Halal Cart on Jay","city":"Brooklyn","permit_number":110,"zip_code":11201,"lat":40.697,"lon":-73.9869,"description":null,"photos":[{"image_url":"/system/images/60/medium/image.jpg?1403192997"}]},{"id":65,"name":"Samy's hot dogs","city":"Brooklyn","permit_number":685,"zip_code":11201,"lat":40.6993,"lon":-73.9915,"description":null,"photos":[{"image_url":"/system/images/59/medium/image.jpg?1403192322"}]},{"id":63,"name":"Coffee cart on cadman plaza","city":"Brooklyn","permit_number":3112,"zip_code":11201,"lat":40.6993,"lon":-73.9915,"description":null,"photos":[{"image_url":"/system/images/58/medium/image.jpg?1403192229"}]},{"id":62,"name":"Kazi Halal Food","city":"Brooklyn","permit_number":3624,"zip_code":11201,"lat":40.6925,"lon":-73.9911,"description":null,"photos":[{"image_url":"/system/images/57/medium/image.jpg?1403191502"}]},{"id":61,"name":"Samy's hot dogs","city":"Brooklyn","permit_number":3351,"zip_code":11201,"lat":40.693,"lon":-73.9884,"description":null,"photos":[{"image_url":"/system/images/56/medium/image.jpg?1403191391"}]},{"id":60,"name":"Coffee cart on Clinton and montague","city":"Brooklyn","permit_number":1952,"zip_code":11201,"lat":40.6941,"lon":-73.9925,"description":null,"photos":[{"image_url":"/system/images/55/medium/image.jpg?1403191136"}]},{"id":59,"name":"Big Apple Pretzels on Clinton and Montague","city":"Brooklyn","permit_number":3128,"zip_code":11201,"lat":40.6941,"lon":-73.9924,"description":null,"photos":[{"image_url":"/system/images/54/medium/image.jpg?1403191068"}]},{"id":58,"name":"Fresh Breakfast on pierrepoint and cadman plaza","city":"Brooklyn","permit_number":4123,"zip_code":11201,"lat":40.6946,"lon":-73.9908,"description":null,"photos":[{"image_url":"/system/images/53/medium/image.jpg?1403190830"}]},{"id":57,"name":"Coffee cart","city":"Brooklyn","permit_number":2687,"zip_code":11201,"lat":40.6953,"lon":-73.989,"description":null,"photos":[{"image_url":"/system/images/52/medium/image.jpg?1403190339"}]},{"id":56,"name":"Alex Coffee","city":"Brooklyn","permit_number":1703,"zip_code":11201,"lat":40.6933,"lon":-73.989,"description":null,"photos":[{"image_url":"/system/images/51/medium/image.jpg?1403190134"}]},{"id":55,"name":"Fruit cart","city":"Brooklyn","permit_number":644,"zip_code":11201,"lat":40.6933,"lon":-73.9887,"description":null,"photos":[{"image_url":"/system/images/50/medium/image.jpg?1403190042"}]},{"id":54,"name":"Halal food and breakfast cart","city":"Brooklyn","permit_number":3149,"zip_code":11201,"lat":40.6928,"lon":-73.9891,"description":null,"photos":[{"image_url":"/system/images/49/medium/image.jpg?1403189787"}]},{"id":53,"name":"Fruit cart on Fulton and boerum place","city":"Brooklyn","permit_number":2111,"zip_code":11201,"lat":40.6921,"lon":-73.9896,"description":null,"photos":[{"image_url":"/system/images/48/medium/image.jpg?1403189573"}]},{"id":52,"name":"Hot dog cart on Livingston and boerum place","city":"Brooklyn","permit_number":3152,"zip_code":11201,"lat":40.6916,"lon":-73.9898,"description":null,"photos":[{"image_url":"/system/images/47/medium/image.jpg?1403189335"}]},{"id":51,"name":"Coffee cart on Livingston and boerum place","city":"Brooklyn","permit_number":3450,"zip_code":11201,"lat":40.6916,"lon":-73.9898,"description":null,"photos":[{"image_url":"/system/images/46/medium/image.jpg?1403189249"}]},{"id":50,"name":"Halal cart on Brooklyn boulevard between Livingston and Joralemon","city":"Brooklyn","permit_number":2045,"zip_code":11201,"lat":40.692,"lon":-73.9891,"description":null,"photos":[{"image_url":"/system/images/45/medium/image.jpg?1403189075"}]},{"id":49,"name":"Lunch Box on Brooklyn boulevard between Livingston and Joralemon","city":"Brooklyn","permit_number":6182,"zip_code":11201,"lat":40.6921,"lon":-73.9893,"description":null,"photos":[{"image_url":"/system/images/44/medium/image.jpg?1403188961"}]},{"id":48,"name":"Fruit cart on Joralemon and Brooklyn boulevard","city":"Brooklyn","permit_number":3100,"zip_code":11201,"lat":40.6923,"lon":-73.9895,"description":null,"photos":[{"image_url":"/system/images/43/medium/image.jpg?1403188842"}]},{"id":47,"name":"Coffee cart btw bye Brooklyn boulevard and court","city":"Brooklyn","permit_number":1956,"zip_code":11201,"lat":40.6926,"lon":-73.9898,"description":null,"photos":[{"image_url":"/system/images/42/medium/image.jpg?1403188087"}]},{"id":46,"name":"Fresh Juice Smoothies","city":"Brooklyn","permit_number":101,"zip_code":11201,"lat":40.6928,"lon":-73.99,"description":null,"photos":[{"image_url":"/system/images/41/medium/image.jpg?1403187968"}]},{"id":45,"name":"Fruit cart between Brooklyn boulevard and court","city":"Brooklyn","permit_number":3150,"zip_code":11201,"lat":40.6927,"lon":-73.9904,"description":null,"photos":[{"image_url":"/system/images/40/medium/image.jpg?1403187694"}]},{"id":44,"name":"Halal cart on court and Joralemon","city":"Brooklyn","permit_number":1426,"zip_code":11201,"lat":40.6922,"lon":-73.9906,"description":null,"photos":[{"image_url":"/system/images/39/medium/image.jpg?1403187572"}]},{"id":43,"name":"Coffee cart on Court and Joralemon","city":"Brooklyn","permit_number":3124,"zip_code":11201,"lat":40.6921,"lon":-73.9908,"description":null,"photos":[{"image_url":"/system/images/38/medium/image.jpg?1403187456"}]},{"id":42,"name":"Coffee cart on court btw Livingston and joralemon","city":"Brooklyn","permit_number":3891,"zip_code":11201,"lat":40.6918,"lon":-73.9911,"description":null,"photos":[{"image_url":"/system/images/37/medium/image.jpg?1403187312"}]},{"id":41,"name":"Fruit cart on Livingston and Court","city":"Brooklyn","permit_number":3251,"zip_code":11201,"lat":40.6917,"lon":-73.9911,"description":null,"photos":[{"image_url":"/system/images/36/medium/image.jpg?1403187200"}]},{"id":40,"name":"XPL Halal Food","city":"Brooklyn","permit_number":3625,"zip_code":11201,"lat":40.6915,"lon":-73.9914,"description":null,"photos":[{"image_url":"/system/images/35/medium/image.jpg?1403186964"}]},{"id":39,"name":"fruit cart on lex and 87","city":"New York","permit_number":1935,"zip_code":10028,"lat":40.7799,"lon":-73.9557,"description":null,"photos":[{"image_url":"/system/images/34/medium/1403182567708.jpg?1403182680"}]},{"id":38,"name":"halal cart on lex and 68","city":"New York","permit_number":2793,"zip_code":10065,"lat":40.7684,"lon":-73.965,"description":null,"photos":[{"image_url":"/system/images/33/medium/1403182120737.jpg?1403182126"}]},{"id":37,"name":"the roadside grill truck","city":"New York","permit_number":3865,"zip_code":10065,"lat":40.7684,"lon":-73.965,"description":null,"photos":[{"image_url":"/system/images/32/medium/1403181923797.jpg?1403181939"}]},{"id":36,"name":"fruit cart on lex and 68","city":"New York","permit_number":1770,"zip_code":10065,"lat":40.7684,"lon":-73.965,"description":null,"photos":[{"image_url":"/system/images/31/medium/1403181853337.jpg?1403181856"}]},{"id":35,"name":"coffee cart on lex and 68","city":"New York","permit_number":3254,"zip_code":10065,"lat":40.7684,"lon":-73.965,"description":null,"photos":[{"image_url":"/system/images/30/medium/1403181733996.jpg?1403181748"}]},{"id":34,"name":"halal cart on lex and 68","city":"New York","permit_number":1626,"zip_code":10065,"lat":40.7666,"lon":-73.9618,"description":null,"photos":[{"image_url":"/system/images/29/medium/1403181606194.jpg?1403181616"}]},{"id":33,"name":"fruit cart on lex and 68 (temp)","city":"New York","permit_number":801,"zip_code":10065,"lat":40.7678,"lon":-73.9639,"description":null,"photos":[{"image_url":"/system/images/28/medium/1403181511930.jpg?1403181516"}]},{"id":32,"name":"coffee cart on lex and 68","city":"New York","permit_number":1570,"zip_code":10065,"lat":40.7684,"lon":-73.965,"description":null,"photos":[{"image_url":"/system/images/27/medium/1403181334690.jpg?1403181338"}]},{"id":31,"name":"coffee cart on lex and 68","city":"New York","permit_number":2069,"zip_code":10065,"lat":40.7684,"lon":-73.965,"description":null,"photos":[{"image_url":"/system/images/26/medium/1403181230234.jpg?1403181236"}]},{"id":30,"name":"fruit cart on lex and 69","city":"New York","permit_number":3500,"zip_code":10065,"lat":40.769,"lon":-73.966,"description":null,"photos":[{"image_url":"/system/images/25/medium/1403181097013.jpg?1403181098"}]},{"id":29,"name":"breakfast cart on east 69","city":"New York","permit_number":1172,"zip_code":10021,"lat":40.7703,"lon":-73.9681,"description":null,"photos":[{"image_url":"/system/images/24/medium/1403180989769.jpg?1403181004"}]},{"id":28,"name":"coffee cart on lex and 72","city":"New York","permit_number":2787,"zip_code":10021,"lat":40.7703,"lon":-73.9681,"description":null,"photos":[{"image_url":"/system/images/23/medium/1403180754845.jpg?1403180753"}]},{"id":27,"name":"fruit cart on 72 and lex (temp)","city":"New York","permit_number":90650,"zip_code":10021,"lat":40.7703,"lon":-73.9681,"description":null,"photos":[{"image_url":"/system/images/22/medium/1403180656242.jpg?1403180656"}]},{"id":26,"name":"coffee cart on 75 and lex","city":"New York","permit_number":3512,"zip_code":10075,"lat":40.7732,"lon":-73.959,"description":null,"photos":[{"image_url":"/system/images/21/medium/1403180412672.jpg?1403180416"}]},{"id":25,"name":"fruit cart on 76 and lex","city":"New York","permit_number":3535,"zip_code":10075,"lat":40.7754,"lon":-73.9617,"description":null,"photos":[{"image_url":"/system/images/20/medium/1403180251767.jpg?1403180280"}]},{"id":24,"name":"coffee cart on 78 and lex","city":"New York","permit_number":3975,"zip_code":10075,"lat":40.7743,"lon":-73.9603,"description":null,"photos":[{"image_url":"/system/images/19/medium/1403179985425.jpg?1403179989"}]},{"id":23,"name":"coffee cart on 79 and lex","city":"New York","permit_number":2042,"zip_code":10075,"lat":40.7743,"lon":-73.9603,"description":null,"photos":[{"image_url":"/system/images/18/medium/1403179856467.jpg?1403179863"}]},{"id":22,"name":"coffee cart on east 84 (temp)","city":"New York","permit_number":14,"zip_code":10028,"lat":40.7798,"lon":-73.9557,"description":null,"photos":[{"image_url":"/system/images/17/medium/1403179529631.jpg?1403179533"}]},{"id":21,"name":"coffee cart btw 85 and 86 on lex","city":"New York","permit_number":3092,"zip_code":10028,"lat":40.7792,"lon":-73.9557,"description":null,"photos":[{"image_url":"/system/images/16/medium/1403179374533.jpg?1403179391"}]},{"id":20,"name":"coffee cart on east 85 and lex","city":"New York","permit_number":3693,"zip_code":10028,"lat":40.7792,"lon":-73.9557,"description":null,"photos":[{"image_url":"/system/images/15/medium/1403179227651.jpg?1403179235"}]},{"id":19,"name":"coffee cart on 86 btw park and lex","city":"New York","permit_number":3928,"zip_code":10128,"lat":40.7794,"lon":-73.9536,"description":null,"photos":[{"image_url":"/system/images/14/medium/1403178652276.jpg?1403178652"}]},{"id":18,"name":"fruit cart on east 86","city":"New York","permit_number":3339,"zip_code":10028,"lat":40.7791,"lon":-73.9547,"description":null,"photos":[{"image_url":"/system/images/13/medium/1403178489579.jpg?1403178508"}]},{"id":17,"name":"fruit cart on 86","city":"New York","permit_number":3946,"zip_code":10028,"lat":40.7791,"lon":-73.9547,"description":null,"photos":[{"image_url":"/system/images/12/medium/1403177830710.jpg?1403177845"}]},{"id":16,"name":"coffee cart on east 86 btw lex and park","city":"New York","permit_number":2315,"zip_code":10128,"lat":40.7801,"lon":-73.9557,"description":null,"photos":[{"image_url":"/system/images/11/medium/1403177702795.jpg?1403177715"}]},{"id":15,"name":"coffee cart btw 86 and 87","city":"New York","permit_number":2579,"zip_code":10028,"lat":40.7798,"lon":-73.9557,"description":null,"photos":[{"image_url":"/system/images/10/medium/1403177594069.jpg?1403177590"}]},{"id":14,"name":"coffee cart on east 87","city":"New York","permit_number":1576,"zip_code":10128,"lat":40.7801,"lon":-73.9557,"description":null,"photos":[{"image_url":"/system/images/9/medium/1403177298464.jpg?1403177300"}]},{"id":13,"name":"coffee cart on east 86","city":"New York","permit_number":2776,"zip_code":10128,"lat":40.7801,"lon":-73.9557,"description":null,"photos":[{"image_url":"/system/images/8/medium/1403177029426.jpg?1403177040"}]}]}